---
ARTROOM14藝室:
  html_attributions: []
  results:
  - business_status: OPERATIONAL
    formatted_address: 300台灣新竹市北區勝利路300號
    geometry:
      location:
        lat: 24.8020889
        lng: 120.9637683
      viewport:
        northeast:
          lat: 24.80342682989272
          lng: 120.9650957298928
        southwest:
          lat: 24.80072717010728
          lng: 120.9623960701073
    icon: https://maps.gstatic.com/mapfiles/place_api/icons/v1/png_71/generic_business-71.png
    icon_background_color: "#7B9EB0"
    icon_mask_base_uri: https://maps.gstatic.com/mapfiles/place_api/icons/v2/generic_pinlet
    name: ARTROOM14 藝室
    photos:
    - height: 4032
      html_attributions:
      - <a href="https://maps.google.com/maps/contrib/110216474943743693780">傅傅玉霏</a>
      photo_reference: AcYSjRgKshzbJCrpgBTCHPzq56MPhAlDXYx589eQxpIdkExBBx9VOjL45j8TmnzwvAACFsRBRqNZhjNlqbNTv5Ip2pTUqMZjYUvt-jtdV9Js_8vBPbn3p88MuAUz6GZ3yaGCVpe832wJA4JSJyqgTrjrFBcnmDTJwI4rMJl5xvEY7RAJEYyq
      width: 3024
    place_id: ChIJC2c7HFc1aDQRdtptswP3kko
    plus_code:
      compound_code: RX27+RG 北區 新竹市
      global_code: 7QP2RX27+RG
    rating: 4.7
    reference: ChIJC2c7HFc1aDQRdtptswP3kko
    types:
    - hair_care
    - point_of_interest
    - establishment
    user_ratings_total: 42
  status: OK
Mr.Moon月亮先生咖啡館:
  html_attributions: []
  results:
  - business_status: OPERATIONAL
    formatted_address: 302台灣新竹縣竹北市嘉豐五路二段29號
    geometry:
      location:
        lat: 24.8100316
        lng: 121.0268825
      viewport:
        northeast:
          lat: 24.81144542989272
          lng: 121.0281444798927
        southwest:
          lat: 24.80874577010728
          lng: 121.0254448201073
    icon: https://maps.gstatic.com/mapfiles/place_api/icons/v1/png_71/cafe-71.png
    icon_background_color: "#FF9E67"
    icon_mask_base_uri: https://maps.gstatic.com/mapfiles/place_api/icons/v2/cafe_pinlet
    name: Mr.Moon月亮先生咖啡館
    opening_hours:
      open_now: false
    photos:
    - height: 2400
      html_attributions:
      - <a href="https://maps.google.com/maps/contrib/108962709232143306574">Mr.Moon月亮先生咖啡館</a>
      photo_reference: AcYSjRizM7w0WHvzTAQJade4Xkuv4XFa6rPS0JOxv4aAtW7IaIC2Qsd-x4BHVgVSJ_yu16UWVBWl9fmlNgf--tF0nqsHurNz55-ZekqV9BR12yIB9PAuLzlhi78LzWzKTqgdkOi6plmiHZNeXN5rMzxrl4g9l3E2QDLjEKmi1HnDpfsEUxqI
      width: 3600
    place_id: ChIJd3wez5Q2aDQRHjbvsKUhSKI
    plus_code:
      compound_code: R26G+2Q 竹北市 新竹縣
      global_code: 7QP3R26G+2Q
    price_level: 2
    rating: 4.2
    reference: ChIJd3wez5Q2aDQRHjbvsKUhSKI
    types:
    - cafe
    - restaurant
    - food
    - point_of_interest
    - store
    - establishment
    user_ratings_total: 1084
  status: OK
Aboutcafe:
  html_attributions: []
  results:
  - business_status: OPERATIONAL
    formatted_address: 224台灣新北市瑞芳區明里路99號
    geometry:
      location:
        lat: 25.118972
        lng: 121.8615249
      viewport:
        northeast:
          lat: 25.12033432989272
          lng: 121.8628173798927
        southwest:
          lat: 25.11763467010728
          lng: 121.8601177201073
    icon: https://maps.gstatic.com/mapfiles/place_api/icons/v1/png_71/restaurant-71.png
    icon_background_color: "#FF9E67"
    icon_mask_base_uri: https://maps.gstatic.com/mapfiles/place_api/icons/v2/restaurant_pinlet
    name: About Cafe pasta
    opening_hours:
      open_now: false
    photos:
    - height: 1837
      html_attributions:
      - <a href="https://maps.google.com/maps/contrib/109603979960759277163">A Google
        User</a>
      photo_reference: AcYSjRh5SslUq0eMG5T_C98MxCW9PBkoOMgYJEPAxHxfl7HSmth53bO0214opgmJpXl3DqnfaG91Y98dC_WXYdW-pgo4Q4xfuvBVXgAeTd9afi5lbiAqBN-saqtGzOGBqeRJsZg3Zm8lPId_gqDZ7l4vDKsKSCH0ChnH9jqhKcJZkniS-3to
      width: 3264
    place_id: ChIJwRmtXh9FXTQRUsTfkbLGfvM
    plus_code:
      compound_code: 4V96+HJ 瑞芳區 新北市
      global_code: 7QQ34V96+HJ
    price_level: 2
    rating: 4.4
    reference: ChIJwRmtXh9FXTQRUsTfkbLGfvM
    types:
    - restaurant
    - point_of_interest
    - food
    - establishment
    user_ratings_total: 837
  - business_status: CLOSED_PERMANENTLY
    formatted_address: 224台灣新北市瑞芳區建基路二段83號之1號
    geometry:
      location:
        lat: 25.1338145
        lng: 121.8058587
      viewport:
        northeast:
          lat: 25.13515187989272
          lng: 121.8072520798927
        southwest:
          lat: 25.13245222010728
          lng: 121.8045524201073
    icon: https://maps.gstatic.com/mapfiles/place_api/icons/v1/png_71/cafe-71.png
    icon_background_color: "#FF9E67"
    icon_mask_base_uri: https://maps.gstatic.com/mapfiles/place_api/icons/v2/cafe_pinlet
    name: About Cafe
    permanently_closed: true
    photos:
    - height: 3456
      html_attributions:
      - <a href="https://maps.google.com/maps/contrib/117014948775810287398">Sherry
        Hsueh</a>
      photo_reference: AcYSjRiuISby5y7shW5kPEYPB1u2BUH8NAQrZDdnuZZX1aXfKpIsE0bvzJ_XmC0l3GnxUtNeB4dWkwCfU_bQO4rhDaN8Nlb1ZQD2skHIe-XK4OoXG-8YCCKx-R5GMypQUJbmXqlBqp_PVUbJ79XqC7TTUfMaH35KP4AhNF9QG6dsUlFegEQ9
      width: 4608
    place_id: ChIJA9KgB2VFXTQRdpZiPUPsuj4
    plus_code:
      compound_code: 4RM4+G9 瑞芳區 新北市
      global_code: 7QQ34RM4+G9
    rating: 3.9
    reference: ChIJA9KgB2VFXTQRdpZiPUPsuj4
    types:
    - cafe
    - point_of_interest
    - food
    - establishment
    user_ratings_total: 125
  status: OK
KURUMI哭哭咖啡二店:
  html_attributions: []
  results:
  - business_status: OPERATIONAL
    formatted_address: 302台灣新竹縣竹北市嘉豐六路二段88號
    geometry:
      location:
        lat: 24.8080003
        lng: 121.0273426
      viewport:
        northeast:
          lat: 24.80932567989272
          lng: 121.0287446798927
        southwest:
          lat: 24.80662602010728
          lng: 121.0260450201072
    icon: https://maps.gstatic.com/mapfiles/place_api/icons/v1/png_71/restaurant-71.png
    icon_background_color: "#FF9E67"
    icon_mask_base_uri: https://maps.gstatic.com/mapfiles/place_api/icons/v2/restaurant_pinlet
    name: KURUMI
    opening_hours:
      open_now: false
    photos:
    - height: 3468
      html_attributions:
      - <a href="https://maps.google.com/maps/contrib/104829045662388909674">fanny
        hsu</a>
      photo_reference: AcYSjRhHdFb7nt53Je5oP18H-pTbV9okZzlsi01DoECEBPxUL8Hw2_lfiuR3lCZe2M49d5P560i-YNmExIJs6HxNnPnesQAP3b2faBkk_hMZprmpda9O2I0ACCzMgridK-KYF-pYe26lZTq2HA3fCo9FEqYOQ8o4ojP3pmIcmmw6wiUXp7vN
      width: 4624
    place_id: ChIJxfsWkOg3aDQRALzhOx_-rh0
    plus_code:
      compound_code: R25G+6W 竹北市 新竹縣
      global_code: 7QP3R25G+6W
    rating: 4.1
    reference: ChIJxfsWkOg3aDQRALzhOx_-rh0
    types:
    - restaurant
    - point_of_interest
    - food
    - establishment
    user_ratings_total: 172
  - business_status: CLOSED_PERMANENTLY
    formatted_address: 302台灣新竹縣竹北市文興路二段140號
    geometry:
      location:
        lat: 24.8067567
        lng: 121.0365084
      viewport:
        northeast:
          lat: 24.80817152989272
          lng: 121.0378890798927
        southwest:
          lat: 24.80547187010728
          lng: 121.0351894201073
    icon: https://maps.gstatic.com/mapfiles/place_api/icons/v1/png_71/cafe-71.png
    icon_background_color: "#FF9E67"
    icon_mask_base_uri: https://maps.gstatic.com/mapfiles/place_api/icons/v2/cafe_pinlet
    name: 哭哭咖啡
    permanently_closed: true
    photos:
    - height: 1184
      html_attributions:
      - <a href="https://maps.google.com/maps/contrib/102566971498038025959">姚國文</a>
      photo_reference: AcYSjRhiiNqoa1N6iNZoEidM-XsiCEaaKblXYdYQC-y7oqm9joz7Ui703e_ktZEXs5GzwtysjHl4jvXSqEuDbt1tQK6G2v1WPsXtWxyaWHgsSi1-zmXQSoY2Eawe5ulLOILwLz7i4LlE1J9bY8pPyOkwulAbq1ktDruUB_JHpLUopJYjFlOO
      width: 1776
    place_id: ChIJVcGtgX83aDQR4WeXOfd09v0
    plus_code:
      compound_code: R24P+PJ 竹北市 新竹縣
      global_code: 7QP3R24P+PJ
    rating: 4.3
    reference: ChIJVcGtgX83aDQR4WeXOfd09v0
    types:
    - cafe
    - point_of_interest
    - food
    - store
    - establishment
    user_ratings_total: 78
  status: OK
橋恩咖啡竹北店:
  html_attributions: []
  results:
  - business_status: OPERATIONAL
    formatted_address: 302台灣新竹縣竹北市文信路297號
    geometry:
      location:
        lat: 24.8318038
        lng: 121.0126643
      viewport:
        northeast:
          lat: 24.83320972989272
          lng: 121.0140243798927
        southwest:
          lat: 24.83051007010728
          lng: 121.0113247201073
    icon: https://maps.gstatic.com/mapfiles/place_api/icons/v1/png_71/cafe-71.png
    icon_background_color: "#FF9E67"
    icon_mask_base_uri: https://maps.gstatic.com/mapfiles/place_api/icons/v2/cafe_pinlet
    name: 橋恩咖啡
    opening_hours:
      open_now: false
    photos:
    - height: 1080
      html_attributions:
      - <a href="https://maps.google.com/maps/contrib/109144699964640169799">橋恩咖啡竹北店</a>
      photo_reference: AcYSjRjyme_V0sjgnCa631N7fq-C1uEvlpeaGn0NNONjoBkCqbmQHZeuCRpFGsCFREPhue_2KjwqPjX6rMU80ycYj7BezVAXS3WoCrR_7Eq1xyRwG5WyOBxv7NW_lBHbl_pX5BuZit5KgBtYFj9wN9kxljNAiiEV6QiivgnjqZhNe8LQXBUu
      width: 1080
    place_id: ChIJP3GKDes2aDQR-yf7OSpWNzo
    plus_code:
      compound_code: R2J7+P3 竹北市 新竹縣
      global_code: 7QP3R2J7+P3
    price_level: 2
    rating: 4.7
    reference: ChIJP3GKDes2aDQR-yf7OSpWNzo
    types:
    - cafe
    - food
    - point_of_interest
    - store
    - establishment
    user_ratings_total: 391
  status: OK
HILABASECAMP:
  html_attributions: []
  results:
  - business_status: OPERATIONAL
    formatted_address: 300台灣新竹市北區長安街107號
    geometry:
      location:
        lat: 24.8075332
        lng: 120.9649131
      viewport:
        northeast:
          lat: 24.80889117989272
          lng: 120.9662818298927
        southwest:
          lat: 24.80619152010728
          lng: 120.9635821701073
    icon: https://maps.gstatic.com/mapfiles/place_api/icons/v1/png_71/cafe-71.png
    icon_background_color: "#FF9E67"
    icon_mask_base_uri: https://maps.gstatic.com/mapfiles/place_api/icons/v2/cafe_pinlet
    name: HILA BASECAMP
    opening_hours:
      open_now: false
    photos:
    - height: 2252
      html_attributions:
      - <a href="https://maps.google.com/maps/contrib/107414680474609050697">LU CB</a>
      photo_reference: AcYSjRhEAGDt2koh8loE5lpI5rnQmiWmi21_b2ugefRqBo0wHooPN0hrViHQo43GiUEm4rvgTFzZ7dPpPBSYV5bPMWFogK6duIfSImltOdzScynTyNpLNAaoGr0FrYCCBuvAiHMUfQ0g184dwDdAwaQx-mNI_SZodZvfHEZfHfxnkb2pSiDA
      width: 4000
    place_id: ChIJTUUsnMA1aDQRiTH5lcM94RA
    plus_code:
      compound_code: RX57+2X 北區 新竹市
      global_code: 7QP2RX57+2X
    price_level: 1
    rating: 4.7
    reference: ChIJTUUsnMA1aDQRiTH5lcM94RA
    types:
    - cafe
    - food
    - point_of_interest
    - establishment
    user_ratings_total: 110
  status: OK
StaybyCoffee:
  html_attributions: []
  results:
  - business_status: OPERATIONAL
    formatted_address: 300台灣新竹市東區東門街27號
    geometry:
      location:
        lat: 24.8039846
        lng: 120.9736313
      viewport:
        northeast:
          lat: 24.80541157989272
          lng: 120.9749842798928
        southwest:
          lat: 24.80271192010728
          lng: 120.9722846201073
    icon: https://maps.gstatic.com/mapfiles/place_api/icons/v1/png_71/cafe-71.png
    icon_background_color: "#FF9E67"
    icon_mask_base_uri: https://maps.gstatic.com/mapfiles/place_api/icons/v2/cafe_pinlet
    name: 一天咖啡
    opening_hours:
      open_now: false
    photos:
    - height: 3024
      html_attributions:
      - <a href="https://maps.google.com/maps/contrib/107414680474609050697">LU CB</a>
      photo_reference: AcYSjRjippto0fOVprE7tCWEFLqy7SFk0kjaYVMvM0Ws-hbaDtEQcgeVUke0ashrtCRHRXIyr-CRXMaQ8_BEpUpGyRVBlFYSIeislFVHbj7Qb-zk6uutXyiZkZjA1VJfRX45twG-z9GE0A99zFUqj9nYYvYQgpfneIxqXPBIGkANBjAcfn-D
      width: 4032
    place_id: ChIJK6xv-cI1aDQRQ-Wo9cpNPyQ
    plus_code:
      compound_code: RX3F+HF 東區 新竹市
      global_code: 7QP2RX3F+HF
    price_level: 2
    rating: 4.4
    reference: ChIJK6xv-cI1aDQRQ-Wo9cpNPyQ
    types:
    - cafe
    - restaurant
    - food
    - point_of_interest
    - store
    - establishment
    user_ratings_total: 317
  status: OK
四隻貓:
  html_attributions: []
  results:
  - business_status: OPERATIONAL
    formatted_address: 300台灣新竹市北區平和街29號
    geometry:
      location:
        lat: 24.8050907
        lng: 120.9667518
      viewport:
        northeast:
          lat: 24.80646957989272
          lng: 120.9681489798927
        southwest:
          lat: 24.80376992010728
          lng: 120.9654493201073
    icon: https://maps.gstatic.com/mapfiles/place_api/icons/v1/png_71/restaurant-71.png
    icon_background_color: "#FF9E67"
    icon_mask_base_uri: https://maps.gstatic.com/mapfiles/place_api/icons/v2/restaurant_pinlet
    name: 三隻貓
    opening_hours:
      open_now: false
    photos:
    - height: 750
      html_attributions:
      - <a href="https://maps.google.com/maps/contrib/108227347971692486630">A Google
        User</a>
      photo_reference: AcYSjRh7iRCdELjsmV-pUA4V9wbxt0qYCCygABoX2oSzvBjnmerCd4LoT5-NKQJ38kBUo-bXFfvUecc7cFTS3NvtOcIjwA5zXWcm0_2Jo3yHUVa_Ew2dhxl7J05z8Z-tw6T8x0paDQfIPRzfFyZCP9nvxlU3kAKgu5w5k_ySCSAzWFfuf3Qd
      width: 869
    place_id: ChIJmzZfixc1aDQRthBExvabpGs
    plus_code:
      compound_code: RX48+2P 北區 新竹市
      global_code: 7QP2RX48+2P
    rating: 4.2
    reference: ChIJmzZfixc1aDQRthBExvabpGs
    types:
    - restaurant
    - food
    - point_of_interest
    - establishment
    user_ratings_total: 281
  - business_status: OPERATIONAL
    formatted_address: 302台灣新竹縣竹北市六家五路一段101號
    geometry:
      location:
        lat: 24.810125
        lng: 121.0248831
      viewport:
        northeast:
          lat: 24.81137707989272
          lng: 121.0261632298927
        southwest:
          lat: 24.80867742010728
          lng: 121.0234635701073
    icon: https://maps.gstatic.com/mapfiles/place_api/icons/v1/png_71/cafe-71.png
    icon_background_color: "#FF9E67"
    icon_mask_base_uri: https://maps.gstatic.com/mapfiles/place_api/icons/v2/cafe_pinlet
    name: 貓角落 CAT Corner【貓咪友善餐廳】
    opening_hours:
      open_now: false
    photos:
    - height: 4032
      html_attributions:
      - <a href="https://maps.google.com/maps/contrib/114492062069017973869">陳兆楨</a>
      photo_reference: AcYSjRhBueOMHrruVmys7vVWlV0NK1ENlh-ozgyQix1FGSUVvZVEm55NDReVrgp8ut6Z7rfj8XgmE7NHM0OG0NKZ963-rS8PYjixlcV-jOIWI7aV_jj_7ae8IE8fhfuSpWwo7rRK5JyzbQWpk3kfTmq_ibvIrWnroB-mWL-PE0zs8rlpePik
      width: 3024
    place_id: ChIJc6sXtVc2aDQR62vPKhvLq5Y
    plus_code:
      compound_code: R26F+2X 竹北市 新竹縣
      global_code: 7QP3R26F+2X
    price_level: 2
    rating: 4.7
    reference: ChIJc6sXtVc2aDQR62vPKhvLq5Y
    types:
    - cafe
    - restaurant
    - food
    - point_of_interest
    - establishment
    user_ratings_total: 1157
  - business_status: OPERATIONAL
    formatted_address: 302台灣新竹縣竹北市吳濁流路86號
    geometry:
      location:
        lat: 24.8315256
        lng: 121.014212
      viewport:
        northeast:
          lat: 24.83289672989272
          lng: 121.0155073798927
        southwest:
          lat: 24.83019707010727
          lng: 121.0128077201073
    icon: https://maps.gstatic.com/mapfiles/place_api/icons/v1/png_71/restaurant-71.png
    icon_background_color: "#FF9E67"
    icon_mask_base_uri: https://maps.gstatic.com/mapfiles/place_api/icons/v2/restaurant_pinlet
    name: 有隻貓咖啡
    opening_hours:
      open_now: false
    photos:
    - height: 3024
      html_attributions:
      - <a href="https://maps.google.com/maps/contrib/105686929950519879600">SHOOTA
        CHEN</a>
      photo_reference: AcYSjRguR1mJBvf9EVRHlxIgGpah6hUDUt0oQ3DKM_gtKPrBy3vnh41r98llFATFSc5G_heQq5Ta5HgS2xwFJIIlXmlUJdHa6y_jlsatnVCbm-kePn01YTc1sfmu9bFXHANcTbtp0q1xf_gaBiNFnSi4zZZQK6-smbMYo1sXY0ZNYiyedLVi
      width: 4032
    place_id: ChIJuUN50Ro3aDQR2yyuhfbfKfw
    plus_code:
      compound_code: R2J7+JM 竹北市 新竹縣
      global_code: 7QP3R2J7+JM
    rating: 5
    reference: ChIJuUN50Ro3aDQR2yyuhfbfKfw
    types:
    - restaurant
    - food
    - point_of_interest
    - store
    - establishment
    user_ratings_total: 209
  - business_status: OPERATIONAL
    formatted_address: 302台灣新竹縣竹北市文信路222號
    geometry:
      location:
        lat: 24.8317632
        lng: 121.0158934
      viewport:
        northeast:
          lat: 24.83305577989272
          lng: 121.0172388798927
        southwest:
          lat: 24.83035612010728
          lng: 121.0145392201073
    icon: https://maps.gstatic.com/mapfiles/place_api/icons/v1/png_71/restaurant-71.png
    icon_background_color: "#FF9E67"
    icon_mask_base_uri: https://maps.gstatic.com/mapfiles/place_api/icons/v2/restaurant_pinlet
    name: 大漁炒泡麵寵物友善餐廳（竹北必吃美食）寵物火鍋、新竹宵夜、竹北宵夜、私房料理、烤生蠔、獨門去殼洋蔥蝦、霸氣天王粥、鮭魚生魚片（內有六隻店狗兩隻貓）
    opening_hours:
      open_now: false
    photos:
    - height: 3024
      html_attributions:
      - <a href="https://maps.google.com/maps/contrib/117437053279955197452">謝采凌</a>
      photo_reference: AcYSjRhNveNGpAhpY27VRYgmao0Dr0YjFhWM0Vg5_wmt690ksdHnL5Yz5elTakPY_AWi7655-esv5rS4YrLlPMijHMuoWnzrVmucraCUqkadHpCYghYOiWecLgdBJcRHIAAKe1zQVxQ0Br442bL6R0RfleXNfGECElq0WnVAa0nGpEJ9-L8y
      width: 4032
    place_id: ChIJmfvDJNo3aDQRlIGHBSMv83w
    plus_code:
      compound_code: R2J8+P9 竹北市 新竹縣
      global_code: 7QP3R2J8+P9
    rating: 4.8
    reference: ChIJmfvDJNo3aDQRlIGHBSMv83w
    types:
    - restaurant
    - food
    - point_of_interest
    - establishment
    user_ratings_total: 2508
  - business_status: OPERATIONAL
    formatted_address: 801台灣高雄市前金區文武二街35號
    geometry:
      location:
        lat: 22.6234916
        lng: 120.2972005
      viewport:
        northeast:
          lat: 22.62484737989272
          lng: 120.2985631298928
        southwest:
          lat: 22.62214772010728
          lng: 120.2958634701073
    icon: https://maps.gstatic.com/mapfiles/place_api/icons/v1/png_71/cafe-71.png
    icon_background_color: "#FF9E67"
    icon_mask_base_uri: https://maps.gstatic.com/mapfiles/place_api/icons/v2/cafe_pinlet
    name: 外帶一隻貓 Miao To GO
    opening_hours:
      open_now: false
    photos:
    - height: 1955
      html_attributions:
      - <a href="https://maps.google.com/maps/contrib/112790498316456337124">外帶一隻貓
        Miao To GO</a>
      photo_reference: AcYSjRhqv1jmzBh9ZQv9dhQIAQZujKnncV_wa7THqfWufkT-0JCyjkZ6NZPyxOYusksCdR96gLmsnudrIkYNAoNrPxDtNeXvQrABKzQUvv0h4DbtJ0ZwXDEhTPBNjXGkkY8mmizZTS36ji5pGRByJq_z1H_EBq_ipb-QofgzCZCYt3B_5O6r
      width: 3476
    place_id: ChIJaR_6YIcEbjQRzyD_OctTWps
    plus_code:
      compound_code: J7FW+9V 前金區 高雄市
      global_code: 7QJ2J7FW+9V
    price_level: 2
    rating: 4.2
    reference: ChIJaR_6YIcEbjQRzyD_OctTWps
    types:
    - cafe
    - food
    - point_of_interest
    - store
    - establishment
    user_ratings_total: 632
  - business_status: OPERATIONAL
    formatted_address: 804台灣高雄市鼓山區美術館路265號
    geometry:
      location:
        lat: 22.6546197
        lng: 120.2830198
      viewport:
        northeast:
          lat: 22.65607777989272
          lng: 120.2843683798927
        southwest:
          lat: 22.65337812010728
          lng: 120.2816687201072
    icon: https://maps.gstatic.com/mapfiles/place_api/icons/v1/png_71/cafe-71.png
    icon_background_color: "#FF9E67"
    icon_mask_base_uri: https://maps.gstatic.com/mapfiles/place_api/icons/v2/cafe_pinlet
    name: 等一隻貓咖啡
    opening_hours:
      open_now: false
    photos:
    - height: 1920
      html_attributions:
      - <a href="https://maps.google.com/maps/contrib/109706483442219684363">張小閔</a>
      photo_reference: AcYSjRhcRccT02vemM-MMnLGXuuZd5QtO36rfwwPiRFt0BjOBYad8J3FHNd3t1C-tJvb0rv-NW7a_ckJJKwxqYA63aTupv07UnyGJC4_dZXIO1EeBWjo7PumAIx7XxD6m-lRAOcdJvcrfjQY-LeBZ8EcVHSnDDMXkFQxw8FBBE3WEWXnkmR0
      width: 2560
    place_id: ChIJBTkzxoYFbjQRRKDIGTcijEE
    plus_code:
      compound_code: M73M+R6 鼓山區 高雄市
      global_code: 7QJ2M73M+R6
    rating: 4.7
    reference: ChIJBTkzxoYFbjQRRKDIGTcijEE
    types:
    - cafe
    - food
    - point_of_interest
    - store
    - establishment
    user_ratings_total: 176
  - business_status: OPERATIONAL
    formatted_address: Carrer de Montsió, 3, 08002 Barcelona, 西班牙
    geometry:
      location:
        lat: 41.38580959999999
        lng: 2.1735743
      viewport:
        northeast:
          lat: 41.38702577989272
          lng: 2.174803079892722
        southwest:
          lat: 41.38432612010727
          lng: 2.172103420107277
    icon: https://maps.gstatic.com/mapfiles/place_api/icons/v1/png_71/restaurant-71.png
    icon_background_color: "#FF9E67"
    icon_mask_base_uri: https://maps.gstatic.com/mapfiles/place_api/icons/v2/restaurant_pinlet
    name: 四隻貓
    opening_hours:
      open_now: true
    photos:
    - height: 5184
      html_attributions:
      - <a href="https://maps.google.com/maps/contrib/108852709215732136935">Els 4Gats</a>
      photo_reference: AcYSjRhoJgghqRnJiDXY6u4AxI8JREr3SWX7hiXwURyBh3iCv1agK4ulryiMZSO4KyT1x8bYRtwUKERi1CqZYU6FqVl8DC_QicFbQR1UdDhOlXNGkQ-zH-x7B2DKvaWu4oQAaxq74WHdPWUTHS--tn2xmEeO5PpbNQocBgLX9xSZ7phErejc
      width: 3456
    place_id: ChIJ4ecss_CipBIRzAR_ag45hM8
    plus_code:
      compound_code: 95PF+8C 巴塞隆拿 西班牙
      global_code: 8FH495PF+8C
    price_level: 2
    rating: 4
    reference: ChIJ4ecss_CipBIRzAR_ag45hM8
    types:
    - restaurant
    - cafe
    - bar
    - food
    - point_of_interest
    - establishment
    user_ratings_total: 5554
  - business_status: CLOSED_PERMANENTLY
    formatted_address: 300台灣新竹市北區德成街68號
    geometry:
      location:
        lat: 24.7997297
        lng: 120.9632113
      viewport:
        northeast:
          lat: 24.80108242989272
          lng: 120.9645594298927
        southwest:
          lat: 24.79838277010728
          lng: 120.9618597701073
    icon: https://maps.gstatic.com/mapfiles/place_api/icons/v1/png_71/cafe-71.png
    icon_background_color: "#FF9E67"
    icon_mask_base_uri: https://maps.gstatic.com/mapfiles/place_api/icons/v2/cafe_pinlet
    name: 四隻貓
    permanently_closed: true
    photos:
    - height: 3456
      html_attributions:
      - <a href="https://maps.google.com/maps/contrib/102442545482904842293">徐宇昊</a>
      photo_reference: AcYSjRik72NGv0wkrNkt1zS3DDnzTeVJW5VkLO2oN6yTP9lP6wuUjAXHXCCWmjqjIIgII8jevXEMnAWJ8-KI4aMmy3wzctaiZk6NnvqJXFBYP6jgTFRKB_fvBfPHjYB6DINkJeXFr0knc8HsuwAjsC4z_zqSJ7C818e6XRw_PA9QW9uNYxrH
      width: 4608
    place_id: ChIJXUtSlpQ1aDQROalp9Zo31r0
    plus_code:
      compound_code: QXX7+W7 北區 新竹市
      global_code: 7QP2QXX7+W7
    price_level: 2
    rating: 4.3
    reference: ChIJXUtSlpQ1aDQROalp9Zo31r0
    types:
    - cafe
    - restaurant
    - food
    - point_of_interest
    - establishment
    user_ratings_total: 297
  status: OK
風起咖啡二店(南大店):
  html_attributions: []
  results:
  - business_status: OPERATIONAL
    formatted_address: 300台灣新竹市東區關東路141號
    geometry:
      location:
        lat: 24.7874015
        lng: 121.0206253
      viewport:
        northeast:
          lat: 24.78876462989272
          lng: 121.0220256298927
        southwest:
          lat: 24.78606497010728
          lng: 121.0193259701073
    icon: https://maps.gstatic.com/mapfiles/place_api/icons/v1/png_71/cafe-71.png
    icon_background_color: "#FF9E67"
    icon_mask_base_uri: https://maps.gstatic.com/mapfiles/place_api/icons/v2/cafe_pinlet
    name: 風起咖啡（關新店）
    opening_hours:
      open_now: false
    photos:
    - height: 3024
      html_attributions:
      - <a href="https://maps.google.com/maps/contrib/111605617554736648055">A Google
        User</a>
      photo_reference: AcYSjRgKzPQMpvQVLlklf4egGtRu5fsdeZfE7YuJugr5aXsslFrlXl57kIlV0LloUL3_8kC4hHbH3j8kZu4WeOcrA2_-cGCwGLP7at3KmEmSSmSZawwTXyfQRH-xLOTRClJuAAkjIc36k9OwQ-jQJSvC2q8Giz1emu_Tv5I1K6pvJVa05rI
      width: 4032
    place_id: ChIJSXOdRqU3aDQRFRzgd6BCuJ4
    plus_code:
      compound_code: Q2PC+X7 東區 新竹市
      global_code: 7QP3Q2PC+X7
    rating: 4.4
    reference: ChIJSXOdRqU3aDQRFRzgd6BCuJ4
    types:
    - cafe
    - food
    - point_of_interest
    - store
    - establishment
    user_ratings_total: 117
  - business_status: CLOSED_PERMANENTLY
    formatted_address: 300台灣新竹市東區南大路157號
    geometry:
      location:
        lat: 24.8000782
        lng: 120.9738697
      viewport:
        northeast:
          lat: 24.80145737989272
          lng: 120.9751963798928
        southwest:
          lat: 24.79875772010728
          lng: 120.9724967201073
    icon: https://maps.gstatic.com/mapfiles/place_api/icons/v1/png_71/cafe-71.png
    icon_background_color: "#FF9E67"
    icon_mask_base_uri: https://maps.gstatic.com/mapfiles/place_api/icons/v2/cafe_pinlet
    name: 風起咖啡二店(南大店)
    permanently_closed: true
    photos:
    - height: 2269
      html_attributions:
      - <a href="https://maps.google.com/maps/contrib/103415284772843398274">A Google
        User</a>
      photo_reference: AcYSjRgu1m5lviFS0-zhR0IAeLEzDrS2oyqHz-LC1TorpAUdsc5d6hxgFbdm2LggLgIOzHRXydx-VleZpeKuenfQnUfFsZIQB1t-hup9aE0DGUJe9fosX2zQEoh1Mi1tYuohpB8SayM6AGfuXDJ6fkul-zYtjAu7Sp8qio-T2y9Gc30AbvdN
      width: 4032
    place_id: ChIJH48PT-g1aDQRVVJdJAcvXoY
    plus_code:
      compound_code: RX2F+2G 東區 新竹市
      global_code: 7QP2RX2F+2G
    rating: 4.4
    reference: ChIJH48PT-g1aDQRVVJdJAcvXoY
    types:
    - cafe
    - food
    - point_of_interest
    - establishment
    user_ratings_total: 161
  status: OK
咖啡．候機室TheDepartureLounge新竹光復店:
  html_attributions: []
  results:
  - business_status: OPERATIONAL
    formatted_address: 300台灣新竹市東區光復路一段360-8號
    geometry:
      location:
        lat: 24.7834729
        lng: 121.017672
      viewport:
        northeast:
          lat: 24.78474557989272
          lng: 121.0189818298927
        southwest:
          lat: 24.78204592010728
          lng: 121.0162821701073
    icon: https://maps.gstatic.com/mapfiles/place_api/icons/v1/png_71/cafe-71.png
    icon_background_color: "#FF9E67"
    icon_mask_base_uri: https://maps.gstatic.com/mapfiles/place_api/icons/v2/cafe_pinlet
    name: 咖啡．候機室｜新竹光復店
    opening_hours:
      open_now: false
    photos:
    - height: 1080
      html_attributions:
      - <a href="https://maps.google.com/maps/contrib/103332305729669989539">A Google
        User</a>
      photo_reference: AcYSjRj29_wU1EcGMSO5oHyszsZ96T7Sss07Ri88NdK-8XxiYsNehtj2tBbaPwU9hQUylXO0cY5tMgFHf2DmVEVoAb--0A6f-9DXZuP4ZURbFL6szfjlyBiKSV4VctgPeiTTae5IG9FLCpVi23nclNyC0141V0GPyKvtV8K1y7EPvaK97uXK
      width: 1920
    place_id: ChIJCzGL4oA3aDQRrIH82PEZ834
    plus_code:
      compound_code: Q2M9+93 東區 新竹市
      global_code: 7QP3Q2M9+93
    rating: 4.8
    reference: ChIJCzGL4oA3aDQRrIH82PEZ834
    types:
    - cafe
    - store
    - food
    - point_of_interest
    - establishment
    user_ratings_total: 48
  - business_status: OPERATIONAL
    formatted_address: 300台灣新竹市東區光復路二段321號
    geometry:
      location:
        lat: 24.8004666
        lng: 120.9879532
      viewport:
        northeast:
          lat: 24.80192392989272
          lng: 120.9893470298928
        southwest:
          lat: 24.79922427010728
          lng: 120.9866473701073
    icon: https://maps.gstatic.com/mapfiles/place_api/icons/v1/png_71/cafe-71.png
    icon_background_color: "#FF9E67"
    icon_mask_base_uri: https://maps.gstatic.com/mapfiles/place_api/icons/v2/cafe_pinlet
    name: 樂玩咖啡 新竹光復工研杉藍店
    opening_hours:
      open_now: false
    photos:
    - height: 2000
      html_attributions:
      - <a href="https://maps.google.com/maps/contrib/110019136942977244059">A Google
        User</a>
      photo_reference: AcYSjRifuG_78D94Wkn9EcukAIrs1yk52I2cQwdmUqv_F8LoiC-MCS_AtlW9NraKOZ-_PnMTocwpXXAaT2kFd9DPl0QijjSbiH__lAGWg3g0u3TLHlTVgV-Mn0GzzNh9taOIcupEqC6dwSFyyxmdQLWaV7Tgq3VcpARJoUv-FFExYWmJp-w5
      width: 1333
    place_id: ChIJLVjz66g3aDQReVlei18ZvUc
    plus_code:
      compound_code: RX2Q+55 東區 新竹市
      global_code: 7QP2RX2Q+55
    rating: 4.4
    reference: ChIJLVjz66g3aDQReVlei18ZvUc
    types:
    - cafe
    - food
    - point_of_interest
    - establishment
    user_ratings_total: 14
  - business_status: OPERATIONAL
    formatted_address: 13, No. 690號光復路二段東區新竹市台灣 300
    geometry:
      location:
        lat: 24.8006181
        lng: 120.9905403
      viewport:
        northeast:
          lat: 24.80200152989272
          lng: 120.9918128298927
        southwest:
          lat: 24.79930187010727
          lng: 120.9891131701073
    icon: https://maps.gstatic.com/mapfiles/place_api/icons/v1/png_71/cafe-71.png
    icon_background_color: "#FF9E67"
    icon_mask_base_uri: https://maps.gstatic.com/mapfiles/place_api/icons/v2/cafe_pinlet
    name: 陽光咖啡廳
    opening_hours:
      open_now: false
    photos:
    - height: 3024
      html_attributions:
      - <a href="https://maps.google.com/maps/contrib/101246276922586899215">lun lo</a>
      photo_reference: AcYSjRg37bWc_IlzlV_wCQubQ218rhueKCZXEcV5uo90-XKY8brwKOCKgCUp1fZsACtov8d-WHNH7rSEIJftn0NLGYaq_KUVBUln8tC35-GlPet2XXlk8yyVKcuEt2HrLzowHuRL2VnOQF_b68iA6NdwahWrtthrUEsamqI4_o3Zf1lSYh9p
      width: 4032
    place_id: ChIJxWZFCb43aDQRJoYS7qN4EMA
    plus_code:
      compound_code: RX2R+66 東區 新竹市
      global_code: 7QP2RX2R+66
    rating: 5
    reference: ChIJxWZFCb43aDQRJoYS7qN4EMA
    types:
    - cafe
    - food
    - point_of_interest
    - establishment
    user_ratings_total: 1
  - business_status: OPERATIONAL
    formatted_address: 300台灣新竹市東區光復路二段269號
    geometry:
      location:
        lat: 24.7998611
        lng: 120.9901227
      viewport:
        northeast:
          lat: 24.80126477989272
          lng: 120.9914949298928
        southwest:
          lat: 24.79856512010728
          lng: 120.9887952701073
    icon: https://maps.gstatic.com/mapfiles/place_api/icons/v1/png_71/shopping-71.png
    icon_background_color: "#4B96F3"
    icon_mask_base_uri: https://maps.gstatic.com/mapfiles/place_api/icons/v2/shopping_pinlet
    name: cama café 新竹光復店
    opening_hours:
      open_now: false
    photos:
    - height: 3024
      html_attributions:
      - <a href="https://maps.google.com/maps/contrib/111792886312346171366">周絲瓜</a>
      photo_reference: AcYSjRjGll2e9ZZgAYmNInUThDAoHABoiuvwvNXD06HKeYxuj7lsvZPd5raApuza9PSsQgoWyjBQBp4nljt3PAFofznXCiIU1EoZk728wX4t6IDpSCWhXytrctyoKoCwNC3Zsuqfx9VJAO1uhIBVVw1-8zrKIgKN5sw5aNnxDsuLIGVkhp6Z
      width: 4032
    place_id: ChIJg4fzG3U2aDQRyeCpWVmK57U
    plus_code:
      compound_code: QXXR+W2 東區 新竹市
      global_code: 7QP2QXXR+W2
    rating: 4.2
    reference: ChIJg4fzG3U2aDQRyeCpWVmK57U
    types:
    - store
    - food
    - point_of_interest
    - establishment
    user_ratings_total: 227
  - business_status: OPERATIONAL
    formatted_address: 300台灣新竹市東區光復路二段221號
    geometry:
      location:
        lat: 24.799456
        lng: 120.991225
      viewport:
        northeast:
          lat: 24.80088752989272
          lng: 120.9926029798928
        southwest:
          lat: 24.79818787010728
          lng: 120.9899033201073
    icon: https://maps.gstatic.com/mapfiles/place_api/icons/v1/png_71/cafe-71.png
    icon_background_color: "#FF9E67"
    icon_mask_base_uri: https://maps.gstatic.com/mapfiles/place_api/icons/v2/cafe_pinlet
    name: RD cafe
    opening_hours:
      open_now: false
    photos:
    - height: 3024
      html_attributions:
      - <a href="https://maps.google.com/maps/contrib/115860121413144180937">Johnny
        Blog</a>
      photo_reference: AcYSjRjbMJytH4JBltSpTUJUIG4DAKoS6oarplxAJholp0ktrK_Sr5CHIKOpJtCwKQVRhiYaXR-L-MXXtAJD_Ua9oeVrqAusTHRXN0ZnIuPljPhlchZwpeaT8EFBx2l9qfPlC2Pl6ddAx_hJwv_9eNpV7_Yeda3Zk4V2OymKoOL2NDGW_22K
      width: 4032
    place_id: ChIJc9Km6HQ2aDQRWGlINk1OYLg
    plus_code:
      compound_code: QXXR+QF 東區 新竹市
      global_code: 7QP2QXXR+QF
    price_level: 1
    rating: 4.7
    reference: ChIJc9Km6HQ2aDQRWGlINk1OYLg
    types:
    - cafe
    - food
    - point_of_interest
    - establishment
    user_ratings_total: 256
  - business_status: OPERATIONAL
    formatted_address: 30071台灣新竹市東區光復路二段738號號1樓
    geometry:
      location:
        lat: 24.8007013
        lng: 120.9890325
      viewport:
        northeast:
          lat: 24.80194547989273
          lng: 120.9903362798927
        southwest:
          lat: 24.79924582010728
          lng: 120.9876366201073
    icon: https://maps.gstatic.com/mapfiles/place_api/icons/v1/png_71/cafe-71.png
    icon_background_color: "#FF9E67"
    icon_mask_base_uri: https://maps.gstatic.com/mapfiles/place_api/icons/v2/cafe_pinlet
    name: 怡客咖啡 新竹光復店
    opening_hours:
      open_now: false
    photos:
    - height: 3024
      html_attributions:
      - <a href="https://maps.google.com/maps/contrib/107374558596534856395">陳任軒</a>
      photo_reference: AcYSjRiq0q-ay4PRFikTZyoELqcWT1HigDdci1Tppv6JuxkcAVoSH5IYdeJgRmq879xfoxSChXRAHOVusJJUpgboUGWEZKD9UMrs9e1_qwhOEpDY11mmcI2NC7lEi7rVyK65Z838p5CV-wqJdl8TdCRn5Rx666fXtsGHGjspBIoI6CT4GcJQ
      width: 4032
    place_id: ChIJzwU4c3U2aDQRg01SrOGIEJ0
    plus_code:
      compound_code: RX2Q+7J 東區 新竹市
      global_code: 7QP2RX2Q+7J
    price_level: 2
    rating: 4.1
    reference: ChIJzwU4c3U2aDQRg01SrOGIEJ0
    types:
    - cafe
    - food
    - point_of_interest
    - establishment
    user_ratings_total: 376
  - business_status: OPERATIONAL
    formatted_address: 300台灣新竹市東區光復路二段18巷17號
    geometry:
      location:
        lat: 24.7922544
        lng: 121.0045147
      viewport:
        northeast:
          lat: 24.79359712989272
          lng: 121.0059009798927
        southwest:
          lat: 24.79089747010728
          lng: 121.0032013201073
    icon: https://maps.gstatic.com/mapfiles/place_api/icons/v1/png_71/cafe-71.png
    icon_background_color: "#FF9E67"
    icon_mask_base_uri: https://maps.gstatic.com/mapfiles/place_api/icons/v2/cafe_pinlet
    name: 飛行樹屋咖啡/B_loved Treehouse Bistro
    opening_hours:
      open_now: false
    photos:
    - height: 809
      html_attributions:
      - <a href="https://maps.google.com/maps/contrib/112875339628550130568">A Google
        User</a>
      photo_reference: AcYSjRgMQmC4xjOzf_K8p5CcmiVP6azMiMndYlz2JYGSltUfndqMTl7CxsSh300X3RLXug-9X5uizamumbdLVjUP2i0fjDNfr39w89jEbAqVryrWoVII38_vDrD_P3W2YWybxuzdVWzW4SS8bTWELNcQt97VAUlxq8C4qFb-ex_nlFs6EhSF
      width: 1440
    place_id: ChIJP9oYfxM2aDQRt6wpWu7Juj8
    plus_code:
      compound_code: Q2R3+WR 東區 新竹市
      global_code: 7QP3Q2R3+WR
    price_level: 2
    rating: 4.5
    reference: ChIJP9oYfxM2aDQRt6wpWu7Juj8
    types:
    - cafe
    - food
    - point_of_interest
    - establishment
    user_ratings_total: 533
  - business_status: OPERATIONAL
    formatted_address: 300台灣新竹市東區光復路一段89巷131號
    geometry:
      location:
        lat: 24.7784923
        lng: 121.0251745
      viewport:
        northeast:
          lat: 24.77983537989272
          lng: 121.0265067798927
        southwest:
          lat: 24.77713572010727
          lng: 121.0238071201073
    icon: https://maps.gstatic.com/mapfiles/place_api/icons/v1/png_71/cafe-71.png
    icon_background_color: "#FF9E67"
    icon_mask_base_uri: https://maps.gstatic.com/mapfiles/place_api/icons/v2/cafe_pinlet
    name: 沐 咖啡
    opening_hours:
      open_now: false
    photos:
    - height: 3024
      html_attributions:
      - <a href="https://maps.google.com/maps/contrib/111817028447404051359">A Google
        User</a>
      photo_reference: AcYSjRguZyOprswv-XT7Sq3rxiUsGLluCXdBg0hLTtiBBzZc0OLf09OAZYG_fMKcH44zGc4GIV33y6NnHHSk_5-t6WzKs3gxrwUeIl4wLHzditKw7ICC2CDMDAWX71VVSNLyzu-ltGv8Mannls_hwBq6xonkm8eesWrQgejC8KWMpC89gAUE
      width: 4032
    place_id: ChIJ20DmMy42aDQRdTN_lTS2EuA
    plus_code:
      compound_code: Q2HG+C3 東區 新竹市
      global_code: 7QP3Q2HG+C3
    price_level: 2
    rating: 4.5
    reference: ChIJ20DmMy42aDQRdTN_lTS2EuA
    types:
    - cafe
    - food
    - point_of_interest
    - establishment
    user_ratings_total: 230
  - business_status: OPERATIONAL
    formatted_address: 300台灣新竹市東區光復路一段523-1號
    geometry:
      location:
        lat: 24.7845545
        lng: 121.0137636
      viewport:
        northeast:
          lat: 24.78598822989272
          lng: 121.0151509798927
        southwest:
          lat: 24.78328857010728
          lng: 121.0124513201073
    icon: https://maps.gstatic.com/mapfiles/place_api/icons/v1/png_71/cafe-71.png
    icon_background_color: "#FF9E67"
    icon_mask_base_uri: https://maps.gstatic.com/mapfiles/place_api/icons/v2/cafe_pinlet
    name: 85度C 咖啡蛋糕飲料-新竹光復店
    opening_hours:
      open_now: false
    photos:
    - height: 900
      html_attributions:
      - <a href="https://maps.google.com/maps/contrib/102754471490249603308">A Google
        User</a>
      photo_reference: AcYSjRhqRwQKjXteJsZSYN-6ejzq_U0xbfxMzNijebAfd1LFPDulBYw_jqIfRqWXqH-E4Cau2lakTSFQ0_rEXaXv_cQB6-m1XwyApMy9dfl3AdnBesiTLzknjgUvJZLW-zjgpjvJ8VUOtbfgYXcR-_-KjFQILTg6Z_Fjissg82VYQKVFeuHS
      width: 900
    place_id: ChIJebhX_zw2aDQRxS49QQpLQk0
    plus_code:
      compound_code: Q2M7+RG 東區 新竹市
      global_code: 7QP3Q2M7+RG
    price_level: 1
    rating: 4.2
    reference: ChIJebhX_zw2aDQRxS49QQpLQk0
    types:
    - cafe
    - food
    - point_of_interest
    - establishment
    user_ratings_total: 164
  - business_status: OPERATIONAL
    formatted_address: 300台灣新竹市東區光復路一段544巷38號
    geometry:
      location:
        lat: 24.7877868
        lng: 121.0112211
      viewport:
        northeast:
          lat: 24.78914987989272
          lng: 121.0125416798927
        southwest:
          lat: 24.78645022010728
          lng: 121.0098420201073
    icon: https://maps.gstatic.com/mapfiles/place_api/icons/v1/png_71/cafe-71.png
    icon_background_color: "#FF9E67"
    icon_mask_base_uri: https://maps.gstatic.com/mapfiles/place_api/icons/v2/cafe_pinlet
    name: 陳卓輕食咖啡館
    opening_hours:
      open_now: false
    photos:
    - height: 3096
      html_attributions:
      - <a href="https://maps.google.com/maps/contrib/116656485825470533362">WL Chell</a>
      photo_reference: AcYSjRi0ce-YOTGWPlLgTWjXQp3L6TKGe028UPe-ZA987cBvkn6z_20r5B7b0j2P37Ro9xuylDyUEG02SBER4c21HzKrWiPE1Ib2-rqtSlM7lXH6ehF3YLly-8ZDiKCZzvIK0URnEOif6reN8nmTfeyZP_65GHpJHOhUAD2G_11JtxFVjlh7
      width: 5504
    place_id: ChIJP_Dh_D02aDQRqIytKEp4g9c
    plus_code:
      compound_code: Q2Q6+4F 東區 新竹市
      global_code: 7QP3Q2Q6+4F
    rating: 4
    reference: ChIJP_Dh_D02aDQRqIytKEp4g9c
    types:
    - cafe
    - food
    - point_of_interest
    - establishment
    user_ratings_total: 23
  - business_status: OPERATIONAL
    formatted_address: 300台灣新竹市東區光復路二段406號
    geometry:
      location:
        lat: 24.7971833
        lng: 120.9967095
      viewport:
        northeast:
          lat: 24.79847557989272
          lng: 120.9980093798927
        southwest:
          lat: 24.79577592010728
          lng: 120.9953097201073
    icon: https://maps.gstatic.com/mapfiles/place_api/icons/v1/png_71/cafe-71.png
    icon_background_color: "#FF9E67"
    icon_mask_base_uri: https://maps.gstatic.com/mapfiles/place_api/icons/v2/cafe_pinlet
    name: STARBUCKS 星巴克 (光復清大門市)
    opening_hours:
      open_now: false
    photos:
    - height: 1836
      html_attributions:
      - <a href="https://maps.google.com/maps/contrib/100663001123867038294">Ray Cheng</a>
      photo_reference: AcYSjRiX5uKcS2c1fjVMqX7OuznzSjpoejStZVNctBjENPPAx03U2EqK88JnIsSw1JEie2ovCwonnFOcd1TW8i5pxP2DMYmP8ToLyaxnNlMec7RuKbHvuHY0P2ME411xHNpqyuwsoSqQkZvoX5q9yOluWpGaQ0qbYxvgEUwZauUacIEcO5UD
      width: 3264
    place_id: ChIJRTzE0HI2aDQRWUCg5LibBp4
    plus_code:
      compound_code: QXWW+VM 東區 新竹市
      global_code: 7QP2QXWW+VM
    price_level: 2
    rating: 4.3
    reference: ChIJRTzE0HI2aDQRWUCg5LibBp4
    types:
    - cafe
    - store
    - food
    - point_of_interest
    - establishment
    user_ratings_total: 1006
  - business_status: OPERATIONAL
    formatted_address: 300台灣新竹市東區建美路31號
    geometry:
      location:
        lat: 24.8017443
        lng: 120.9977223
      viewport:
        northeast:
          lat: 24.80307987989272
          lng: 120.9990992298927
        southwest:
          lat: 24.80038022010728
          lng: 120.9963995701073
    icon: https://maps.gstatic.com/mapfiles/place_api/icons/v1/png_71/cafe-71.png
    icon_background_color: "#FF9E67"
    icon_mask_base_uri: https://maps.gstatic.com/mapfiles/place_api/icons/v2/cafe_pinlet
    name: 曉得咖啡甜點
    opening_hours:
      open_now: false
    photos:
    - height: 4032
      html_attributions:
      - <a href="https://maps.google.com/maps/contrib/105552732841010120068">葉立薇</a>
      photo_reference: AcYSjRiD8WaPlrXYLJZvq4zueCakwgQqaQhPTh9s1EykX51EeluZnQ8i-GubNI3g-Za8Mw6bKGDs3172BaqCaZs0gwf5YrGXhVd_gE_5VSgY1MbD4ybldkmO74P5KhnoUpZ0jGLE4MSqUu32EyQdRS6ZVCs2YoUFr3mKYOPM5nkj6qXD5SG0
      width: 3024
    place_id: ChIJJ1IwIHI2aDQRos8ugLXunWg
    plus_code:
      compound_code: RX2X+M3 東區 新竹市
      global_code: 7QP2RX2X+M3
    rating: 4.5
    reference: ChIJJ1IwIHI2aDQRos8ugLXunWg
    types:
    - cafe
    - food
    - point_of_interest
    - establishment
    user_ratings_total: 88
  - business_status: OPERATIONAL
    formatted_address: 300台灣新竹市東區光復路一段576巷17號
    geometry:
      location:
        lat: 24.7911561
        lng: 121.0066733
      viewport:
        northeast:
          lat: 24.79249557989272
          lng: 121.0080843798927
        southwest:
          lat: 24.78979592010727
          lng: 121.0053847201072
    icon: https://maps.gstatic.com/mapfiles/place_api/icons/v1/png_71/restaurant-71.png
    icon_background_color: "#FF9E67"
    icon_mask_base_uri: https://maps.gstatic.com/mapfiles/place_api/icons/v2/restaurant_pinlet
    name: 良杯 Better Bay - 手作貝果 優格
    opening_hours:
      open_now: false
    photos:
    - height: 2263
      html_attributions:
      - <a href="https://maps.google.com/maps/contrib/113219412556971683895">A Google
        User</a>
      photo_reference: AcYSjRhF3LCGkjjiXiIWIs8bO3DTWkgD-vii66vZ8tI8HQveWtCcJeCxIT7H4gg2PqNTzpyoUmLFHjwtOixMmlUAHFybNY3892PVoOaUqdaZJqVuDuyRYhkgikoEF6Mk3bLqbmP4jeon8OJhHrygkHwm6JY335doJ_lTiEEv-27FKfmLyRzC
      width: 4022
    place_id: ChIJFzQkNoo3aDQRAnEEpZGYF-Y
    plus_code:
      compound_code: Q2R4+FM 東區 新竹市
      global_code: 7QP3Q2R4+FM
    rating: 4.7
    reference: ChIJFzQkNoo3aDQRAnEEpZGYF-Y
    types:
    - bakery
    - cafe
    - store
    - food
    - point_of_interest
    - establishment
    user_ratings_total: 52
  - business_status: OPERATIONAL
    formatted_address: 300台灣新竹市東區光復路一段362之19號
    geometry:
      location:
        lat: 24.78414
        lng: 121.016004
      viewport:
        northeast:
          lat: 24.78540382989272
          lng: 121.0173193798927
        southwest:
          lat: 24.78270417010727
          lng: 121.0146197201072
    icon: https://maps.gstatic.com/mapfiles/place_api/icons/v1/png_71/shopping-71.png
    icon_background_color: "#4B96F3"
    icon_mask_base_uri: https://maps.gstatic.com/mapfiles/place_api/icons/v2/shopping_pinlet
    name: cama café 新竹關新店
    opening_hours:
      open_now: false
    photos:
    - height: 1620
      html_attributions:
      - <a href="https://maps.google.com/maps/contrib/117861933262841474879">浦木裕</a>
      photo_reference: AcYSjRheKcqS-vQZ6peI8K60A4hftehfYhaeVZ6B_D_UJKnw85Q23cmWSJGBQwYR7uxjwBL883jPGxduZ4eft9SN5Nk46rdjW9b24ivGkHE79v4yN6idvv4rXq4UG19XW6iHYv47ywKnNJOgNS69SLIxj8kNr9Tv_lPlsITwQQowc4MrTd6-
      width: 3510
    place_id: ChIJf0_Wj4Q3aDQRYvUkEW-64I0
    plus_code:
      compound_code: Q2M8+MC 東區 新竹市
      global_code: 7QP3Q2M8+MC
    rating: 4.7
    reference: ChIJf0_Wj4Q3aDQRYvUkEW-64I0
    types:
    - store
    - food
    - point_of_interest
    - establishment
    user_ratings_total: 91
  - business_status: OPERATIONAL
    formatted_address: 300台灣新竹市東區光復路一段89號
    geometry:
      location:
        lat: 24.7812473
        lng: 121.0239219
      viewport:
        northeast:
          lat: 24.78265877989272
          lng: 121.0252892798927
        southwest:
          lat: 24.77995912010728
          lng: 121.0225896201073
    icon: https://maps.gstatic.com/mapfiles/place_api/icons/v1/png_71/cafe-71.png
    icon_background_color: "#FF9E67"
    icon_mask_base_uri: https://maps.gstatic.com/mapfiles/place_api/icons/v2/cafe_pinlet
    name: 果藏-新竹光復店
    opening_hours:
      open_now: false
    photos:
    - height: 1992
      html_attributions:
      - <a href="https://maps.google.com/maps/contrib/102938896772768674366">A Google
        User</a>
      photo_reference: AcYSjRiuoJVMCor51-hiU3dB_3C3o3kxvfkyiUep38FKWFxzBIAWMmxnQeTeQM_1Xsgsn9qt_nOKYnxKalbt3QHjv4Bhzfh3IjCCFyqXPwgEq0lMJc2DpAeRAKurjS0ENNMInMqGxb7pFjL7EQxXthssOmxD8BSdPyO4mpVAz567qRpz1_sJ
      width: 2656
    place_id: ChIJ7RcHX9g3aDQRjts6y9eSvnE
    plus_code:
      compound_code: Q2JF+FH 東區 新竹市
      global_code: 7QP3Q2JF+FH
    rating: 4.4
    reference: ChIJ7RcHX9g3aDQRjts6y9eSvnE
    types:
    - bakery
    - cafe
    - store
    - restaurant
    - food
    - point_of_interest
    - establishment
    user_ratings_total: 38
  - business_status: OPERATIONAL
    formatted_address: 300台灣新竹市東區慈雲路51號1樓
    geometry:
      location:
        lat: 24.7898865
        lng: 121.0112497
      viewport:
        northeast:
          lat: 24.79124997989272
          lng: 121.0124854298927
        southwest:
          lat: 24.78855032010727
          lng: 121.0097857701073
    icon: https://maps.gstatic.com/mapfiles/place_api/icons/v1/png_71/cafe-71.png
    icon_background_color: "#FF9E67"
    icon_mask_base_uri: https://maps.gstatic.com/mapfiles/place_api/icons/v2/cafe_pinlet
    name: Hollatte馥拿鐵 自烘咖啡 關埔店
    opening_hours:
      open_now: false
    photos:
    - height: 4160
      html_attributions:
      - <a href="https://maps.google.com/maps/contrib/111278509554501549157">A Google
        User</a>
      photo_reference: AcYSjRh43FU8sbpxbSaBczOHzkpCZu0AqVGMwzbrjg9HOuZnhoJqqeLyL8iBtUAb-4uM0lHHnvjE02IZevQX15S21KbLRbP2XHwPqH1EBnR3YvSAFtIwcrWFBzaiaMwR8CrEtoMznStmi2fP_sNxEdfyJTAFP6ItK9uycCG39Z9fKENylhPn
      width: 3120
    place_id: ChIJFbU3ipU3aDQRNxaE23kD9pc
    plus_code:
      compound_code: Q2Q6+XF 東區 新竹市
      global_code: 7QP3Q2Q6+XF
    rating: 4.9
    reference: ChIJFbU3ipU3aDQRNxaE23kD9pc
    types:
    - cafe
    - store
    - food
    - point_of_interest
    - establishment
    user_ratings_total: 72
  - business_status: OPERATIONAL
    formatted_address: 300台灣新竹市東區民生路129號
    geometry:
      location:
        lat: 24.8103353
        lng: 120.9767325
      viewport:
        northeast:
          lat: 24.81172092989272
          lng: 120.9781389298928
        southwest:
          lat: 24.80902127010728
          lng: 120.9754392701073
    icon: https://maps.gstatic.com/mapfiles/place_api/icons/v1/png_71/cafe-71.png
    icon_background_color: "#FF9E67"
    icon_mask_base_uri: https://maps.gstatic.com/mapfiles/place_api/icons/v2/cafe_pinlet
    name: cama café 新竹巨城店
    opening_hours:
      open_now: false
    photos:
    - height: 3504
      html_attributions:
      - <a href="https://maps.google.com/maps/contrib/103723358497211855597">Christopher
        Chan</a>
      photo_reference: AcYSjRhGFQZ9_BM9e9fty0Xa4pu-7QXp0TrHTismIzUG2AWzAyWkZDSGwwM59F6xNW7Q60-O5ZBkawMuU8W1dKvS-0qkpf72W_HnhouOiy8SklPboIFov-8ZUcgwNbmmv766KI7TjEf3cOjRqPgzIoJAahjxUrPbHU2LI18lbnJD9O56GDjz
      width: 4672
    place_id: ChIJb2akxdo1aDQRZBbecavuPOc
    plus_code:
      compound_code: RX6G+4M 東區 新竹市
      global_code: 7QP2RX6G+4M
    price_level: 1
    rating: 4.3
    reference: ChIJb2akxdo1aDQRZBbecavuPOc
    types:
    - cafe
    - store
    - food
    - point_of_interest
    - establishment
    user_ratings_total: 164
  - business_status: OPERATIONAL
    formatted_address: 300台灣新竹市東區光復路一段99號
    geometry:
      location:
        lat: 24.7812383
        lng: 121.0236947
      viewport:
        northeast:
          lat: 24.78265477989272
          lng: 121.0250567798927
        southwest:
          lat: 24.77995512010728
          lng: 121.0223571201073
    icon: https://maps.gstatic.com/mapfiles/place_api/icons/v1/png_71/cafe-71.png
    icon_background_color: "#FF9E67"
    icon_mask_base_uri: https://maps.gstatic.com/mapfiles/place_api/icons/v2/cafe_pinlet
    name: 上宇林頂級茶飲
    opening_hours:
      open_now: false
    photos:
    - height: 659
      html_attributions:
      - <a href="https://maps.google.com/maps/contrib/110491685376519647769">A Google
        User</a>
      photo_reference: AcYSjRgfyc7d6-DfRJ4kjdY1dXCzMPT6wJBIzDw8ZmEEZL3I2O3Mn-qEOTw9pDrLs9hjtIGnAqzzQVMO4hcjcor0DCboMnOywfLI7PvnQOfcbZO-YSbrJ9j228i3m8tzfRtvOmdaIZJaC4CRnlnYIqEE56YRxCIrAW0o4sf-V_RYaJl3f_eh
      width: 1170
    place_id: ChIJVYeP7MM3aDQRzPOX5I00ccM
    plus_code:
      compound_code: Q2JF+FF 東區 新竹市
      global_code: 7QP3Q2JF+FF
    rating: 3.2
    reference: ChIJVYeP7MM3aDQRzPOX5I00ccM
    types:
    - cafe
    - food
    - point_of_interest
    - establishment
    user_ratings_total: 106
  - business_status: OPERATIONAL
    formatted_address: 300台灣新竹市東區Unnamed Road
    geometry:
      location:
        lat: 24.7925531
        lng: 120.9874274
      viewport:
        northeast:
          lat: 24.79390292989272
          lng: 120.9887772298927
        southwest:
          lat: 24.79120327010727
          lng: 120.9860775701073
    icon: https://maps.gstatic.com/mapfiles/place_api/icons/v1/png_71/cafe-71.png
    icon_background_color: "#FF9E67"
    icon_mask_base_uri: https://maps.gstatic.com/mapfiles/place_api/icons/v2/cafe_pinlet
    name: 黑狼5號單車咖啡
    opening_hours:
      open_now: false
    photos:
    - height: 4032
      html_attributions:
      - <a href="https://maps.google.com/maps/contrib/114603454190612274798">Sherry
        Wang</a>
      photo_reference: AcYSjRjAZoVunLfjpzEBYW6nbBuINqG34zxvs2CuG-OumWZh5bLFJpxjBPLuaqb-A2K7LdCtEqXLviRk8QS6XKIiKYP_1tbeHBAOzuc-SwEpfitPgIYUPkomD7evEFb2RSwhNUt8ksXH02IYhzxzd411-zw_AhNy162zQml-1ZgEOLgsuspD
      width: 3024
    place_id: ChIJWYn_6ZA1aDQRLU7savNXqHk
    plus_code:
      compound_code: QXVP+2X 東區 新竹市
      global_code: 7QP2QXVP+2X
    rating: 4.9
    reference: ChIJWYn_6ZA1aDQRLU7savNXqHk
    types:
    - cafe
    - food
    - point_of_interest
    - establishment
    user_ratings_total: 17
  - business_status: OPERATIONAL
    formatted_address: 300台灣新竹市東區科學園路34號
    geometry:
      location:
        lat: 24.7860271
        lng: 121.0099755
      viewport:
        northeast:
          lat: 24.78739422989272
          lng: 121.0113722298927
        southwest:
          lat: 24.78469457010728
          lng: 121.0086725701073
    icon: https://maps.gstatic.com/mapfiles/place_api/icons/v1/png_71/restaurant-71.png
    icon_background_color: "#FF9E67"
    icon_mask_base_uri: https://maps.gstatic.com/mapfiles/place_api/icons/v2/restaurant_pinlet
    name: 儷舍坊
    opening_hours:
      open_now: false
    photos:
    - height: 3024
      html_attributions:
      - <a href="https://maps.google.com/maps/contrib/106020828943422194379">袁華谷</a>
      photo_reference: AcYSjRhecy5Iq7DQRrnJ9YyCbD7WkI1YEQgDNvSKBpygtTke6J91LM8R8eWH_mBnMoJWxGBrOCw4Ldp_65w-nhrbumSzn6XWMvv6ab9OnxNiYMkKCq1YDw2Bdkthq_ecWW-lHZiz6pq7hikwMZwt4RV-ccibPLMjVF41m0YBQOfnJGgak3aP
      width: 4032
    place_id: ChIJ0SeKMRY2aDQRsk2uoAZ9wOM
    plus_code:
      compound_code: Q2P5+CX 東區 新竹市
      global_code: 7QP3Q2P5+CX
    price_level: 2
    rating: 4.3
    reference: ChIJ0SeKMRY2aDQRsk2uoAZ9wOM
    types:
    - cafe
    - store
    - restaurant
    - food
    - point_of_interest
    - establishment
    user_ratings_total: 600
  status: OK
客棧咖啡日式早午餐:
  html_attributions: []
  next_page_token: AcYSjRjvrI0S6fDxwpf5WrtDoHL0lu7MemLxHIN8tlqWaEOxb31P9nUsmm22jSGVMdMkKE2MmlOyCKE2QLh3wcZ-CIBi4QenGlHCjmmDR_ZBCBy0Xfg-drUw1lZnaM5WeFM-7v_NgJ7KbEmlqKyQ0EhNMkYyMSAwKDsxqyUrdUr9Ycww21DDQpbtO8tLBKDNUDnHrj9wSrpUoS82H7zt5gBSWYTkVlaUZBxIAxEkMQZzpmEDeW5F35cXm5nFKQf0WFpC3FgiR9BdsptmU1FUZhMvRlsTALRvvfXN31LDXjYRPs0THv9ku0Pqwex2Co9fEMdxYJdGuvXYq-qtUbPpmWj0PWVBxzGl_OuADSqBXixCq9nKmb773rwtZGKA7jIfBY2JwqA4SSFvQ9XtYFOUEP7tz_qxmzZrHC4CFg
  results:
  - business_status: OPERATIONAL
    formatted_address: 300台灣新竹市東區光復路二段18巷17號
    geometry:
      location:
        lat: 24.7922544
        lng: 121.0045147
      viewport:
        northeast:
          lat: 24.79359712989272
          lng: 121.0059009798927
        southwest:
          lat: 24.79089747010728
          lng: 121.0032013201073
    icon: https://maps.gstatic.com/mapfiles/place_api/icons/v1/png_71/cafe-71.png
    icon_background_color: "#FF9E67"
    icon_mask_base_uri: https://maps.gstatic.com/mapfiles/place_api/icons/v2/cafe_pinlet
    name: 飛行樹屋咖啡/B_loved Treehouse Bistro
    opening_hours:
      open_now: false
    photos:
    - height: 3019
      html_attributions:
      - <a href="https://maps.google.com/maps/contrib/106399119954537737466">劉小寶</a>
      photo_reference: AcYSjRhlAEhx-0pWHedXcnIAQOAHN78HLfqAeyVnpaPTGc_G-73irQhv21dkrN8A4ZaLP9wU6tskFaltzFegz5T3UBy6v6oBArc3BzUIKvmJPMxNuzqvL1xKXybUM-40tyj3ZJvr0B8VLEByFd9nRZI0VZCz0kHEXBNjCsVA4_6cxcw6T7Gk
      width: 3019
    place_id: ChIJP9oYfxM2aDQRt6wpWu7Juj8
    plus_code:
      compound_code: Q2R3+WR 東區 新竹市
      global_code: 7QP3Q2R3+WR
    price_level: 2
    rating: 4.5
    reference: ChIJP9oYfxM2aDQRt6wpWu7Juj8
    types:
    - cafe
    - point_of_interest
    - food
    - establishment
    user_ratings_total: 533
  - business_status: OPERATIONAL
    formatted_address: 300台灣新竹市東區公道五路三段1號
    geometry:
      location:
        lat: 24.8055183
        lng: 120.9915418
      viewport:
        northeast:
          lat: 24.80704167989272
          lng: 120.9930206298927
        southwest:
          lat: 24.80434202010728
          lng: 120.9903209701073
    icon: https://maps.gstatic.com/mapfiles/place_api/icons/v1/png_71/cafe-71.png
    icon_background_color: "#FF9E67"
    icon_mask_base_uri: https://maps.gstatic.com/mapfiles/place_api/icons/v2/cafe_pinlet
    name: 客美多咖啡 Komeda‘s Coffee - 新竹公道店
    opening_hours:
      open_now: false
    photos:
    - height: 4032
      html_attributions:
      - <a href="https://maps.google.com/maps/contrib/105711481507725433025">梅玲</a>
      photo_reference: AcYSjRh4PVE7gmFOBzqR_erQZmhMYIXCcj3EwHKDXHsBD6SiS5diSzLQsvlF0XeDN4NGIxLLOkQ-MgH5-G3S25kdlCqh46Hpc-hnAvFBBHb0hJpwLtOWm-Fc9BNdrVk3Uk2NoxrqqzK48d2gGUrpALcjsTGiOxdSgACVypAiPKFkZMMzvHs9
      width: 3024
    place_id: ChIJ_eJcZ_c3aDQRW9HJsKYFO08
    plus_code:
      compound_code: RX4R+6J 東區 新竹市
      global_code: 7QP2RX4R+6J
    price_level: 2
    rating: 3.9
    reference: ChIJ_eJcZ_c3aDQRW9HJsKYFO08
    types:
    - cafe
    - point_of_interest
    - food
    - establishment
    user_ratings_total: 323
  - business_status: OPERATIONAL
    formatted_address: 300台灣新竹市東區大學路56號
    geometry:
      location:
        lat: 24.7896596
        lng: 121.0008919
      viewport:
        northeast:
          lat: 24.79087582989272
          lng: 121.0022289798927
        southwest:
          lat: 24.78817617010728
          lng: 120.9995293201073
    icon: https://maps.gstatic.com/mapfiles/place_api/icons/v1/png_71/restaurant-71.png
    icon_background_color: "#FF9E67"
    icon_mask_base_uri: https://maps.gstatic.com/mapfiles/place_api/icons/v2/restaurant_pinlet
    name: 微妙時光
    opening_hours:
      open_now: false
    photos:
    - height: 3024
      html_attributions:
      - <a href="https://maps.google.com/maps/contrib/114003701129540232054">黃晶盈</a>
      photo_reference: AcYSjRjVDy4w8flkVdDXNMCx_V4F-HWofp8PPty9ld7qQfZoPz_TbL6jlkIjWbb5Ie8NJbYJdhqdTNbt9jTW7jqB5B2Nd-beIZbSi5pnuoqXjBUYJQk2uY_xeXNVyteru1RpsZmuNFlShkfnUWYGuf7l02mzJxfgt9Oi6i93fc0PA8FHLFwv
      width: 4032
    place_id: ChIJASPkso43aDQRnIwO_7_qdFA
    plus_code:
      compound_code: Q2Q2+V9 東區 新竹市
      global_code: 7QP3Q2Q2+V9
    rating: 4.4
    reference: ChIJASPkso43aDQRnIwO_7_qdFA
    types:
    - restaurant
    - point_of_interest
    - food
    - establishment
    user_ratings_total: 154
  - business_status: OPERATIONAL
    formatted_address: 302台灣新竹縣竹北市嘉豐六路二段88號
    geometry:
      location:
        lat: 24.8080003
        lng: 121.0273426
      viewport:
        northeast:
          lat: 24.80932567989272
          lng: 121.0287446798927
        southwest:
          lat: 24.80662602010728
          lng: 121.0260450201072
    icon: https://maps.gstatic.com/mapfiles/place_api/icons/v1/png_71/restaurant-71.png
    icon_background_color: "#FF9E67"
    icon_mask_base_uri: https://maps.gstatic.com/mapfiles/place_api/icons/v2/restaurant_pinlet
    name: KURUMI
    opening_hours:
      open_now: false
    photos:
    - height: 3024
      html_attributions:
      - <a href="https://maps.google.com/maps/contrib/104467779179493742567">Yi-Hao
        Chang</a>
      photo_reference: AcYSjRiOrpOWKlz4Ldf3K5krE5HdivXb-9E-3KfZLbEHUhnCtd5xnd6gOS1sb_9mAqBtcJEAl1Lxg1orFQWc3NnkTSXH_VY9eqtJMjdoi5rGe5dMGIKLizd70lD-_KNxciz4Tzuvkdvg3rUVIZRPYTyiLAdHZuOvqEe8TMPq1R99tvh1hewp
      width: 3024
    place_id: ChIJxfsWkOg3aDQRALzhOx_-rh0
    plus_code:
      compound_code: R25G+6W 竹北市 新竹縣
      global_code: 7QP3R25G+6W
    rating: 4.1
    reference: ChIJxfsWkOg3aDQRALzhOx_-rh0
    types:
    - restaurant
    - point_of_interest
    - food
    - establishment
    user_ratings_total: 172
  - business_status: OPERATIONAL
    formatted_address: 300台灣新竹市東區興達街1號
    geometry:
      location:
        lat: 24.799167
        lng: 120.965899
      viewport:
        northeast:
          lat: 24.80053602989272
          lng: 120.9672336298927
        southwest:
          lat: 24.79783637010728
          lng: 120.9645339701073
    icon: https://maps.gstatic.com/mapfiles/place_api/icons/v1/png_71/cafe-71.png
    icon_background_color: "#FF9E67"
    icon_mask_base_uri: https://maps.gstatic.com/mapfiles/place_api/icons/v2/cafe_pinlet
    name: 江山藝改所 Jiang Shan Yi Gai Suo
    opening_hours:
      open_now: false
    photos:
    - height: 2268
      html_attributions:
      - <a href="https://maps.google.com/maps/contrib/114771821224508374523">王千尹</a>
      photo_reference: AcYSjRgLxsXy4q_-s1XXttigt93uXqatpKu52QMd3VA54LQ1wKcYto4_RuhTk8CkxS0Yo1ze2lK5-P-zhEC2QhVbjZIF-vra7q-OwiKMhG4XDdstt4Somhuclyi6rB9ioibwd94u4K54vtB1VPwsLLpUl1480z4sADe7vS_BTKRz91RNg3fz
      width: 4032
    place_id: ChIJM0Lg9r81aDQRXu55xK2YaM8
    plus_code:
      compound_code: QXX8+M9 東區 新竹市
      global_code: 7QP2QXX8+M9
    price_level: 2
    rating: 4.5
    reference: ChIJM0Lg9r81aDQRXu55xK2YaM8
    types:
    - cafe
    - book_store
    - electronics_store
    - home_goods_store
    - point_of_interest
    - store
    - food
    - establishment
    user_ratings_total: 581
  - business_status: OPERATIONAL
    formatted_address: 300台灣新竹市東區興學街96號
    geometry:
      location:
        lat: 24.7974845
        lng: 120.9660671
      viewport:
        northeast:
          lat: 24.79883112989272
          lng: 120.9674112798928
        southwest:
          lat: 24.79613147010728
          lng: 120.9647116201073
    icon: https://maps.gstatic.com/mapfiles/place_api/icons/v1/png_71/cafe-71.png
    icon_background_color: "#FF9E67"
    icon_mask_base_uri: https://maps.gstatic.com/mapfiles/place_api/icons/v2/cafe_pinlet
    name: GB5用心的咖啡
    opening_hours:
      open_now: false
    photos:
    - height: 2268
      html_attributions:
      - <a href="https://maps.google.com/maps/contrib/110376867860324742201">羅麗卿</a>
      photo_reference: AcYSjRgOeFmfjltx68phYpibV6X9_Tu1RSMCrBr1ZWeSIbz0chiyhCGmIX8oxQ_9jRKo1Z6kiy_AIK-4fQ8X5Tn--ArydYpOAEFIpNbd61MBnojdSQlDG1xh9u1Tw2yAFsNGerO6tGxjNOZmKud-iBrxy__LYsETWwXnHTEeCwADCT51w0lM
      width: 4032
    place_id: ChIJH5ZZwuo1aDQRKSidfogK5zg
    plus_code:
      compound_code: QXX8+2C 東區 新竹市
      global_code: 7QP2QXX8+2C
    price_level: 2
    rating: 4.7
    reference: ChIJH5ZZwuo1aDQRKSidfogK5zg
    types:
    - cafe
    - point_of_interest
    - food
    - establishment
    user_ratings_total: 343
  - business_status: OPERATIONAL
    formatted_address: 302台灣新竹縣竹北市嘉豐十一路二段2號
    geometry:
      location:
        lat: 24.8073388
        lng: 121.034787
      viewport:
        northeast:
          lat: 24.80864237989272
          lng: 121.0362234798928
        southwest:
          lat: 24.80594272010728
          lng: 121.0335238201073
    icon: https://maps.gstatic.com/mapfiles/place_api/icons/v1/png_71/restaurant-71.png
    icon_background_color: "#FF9E67"
    icon_mask_base_uri: https://maps.gstatic.com/mapfiles/place_api/icons/v2/restaurant_pinlet
    name: A kitchen 一間廚房
    opening_hours:
      open_now: false
    photos:
    - height: 4032
      html_attributions:
      - <a href="https://maps.google.com/maps/contrib/107903980953061863272">Winston
        Telesford</a>
      photo_reference: AcYSjRhpRkOK-clgoExeocBdgxAL53HeLLKVX4kLX2IqgZtdkPz05RJfXsy_Nf4T1C0eqpnaui4rhv1gWqSPP2bOQC6ePFdLW8tdwceYSEhmbD72N5Z-JAPc8pINovA7V76y11N4KRD_uhrkfObvb3wqgRN1tm3QDGeDYV9skg5O5m0HKzPh
      width: 3024
    place_id: ChIJvZ_48Kc2aDQRQnoYLUoTnrI
    plus_code:
      compound_code: R24M+WW 竹北市 新竹縣
      global_code: 7QP3R24M+WW
    price_level: 2
    rating: 4.3
    reference: ChIJvZ_48Kc2aDQRQnoYLUoTnrI
    types:
    - meal_delivery
    - restaurant
    - point_of_interest
    - food
    - establishment
    user_ratings_total: 190
  - business_status: OPERATIONAL
    formatted_address: 300台灣新竹市東區埔頂二路18號
    geometry:
      location:
        lat: 24.7905717
        lng: 121.0144534
      viewport:
        northeast:
          lat: 24.79185747989272
          lng: 121.0157675798927
        southwest:
          lat: 24.78915782010728
          lng: 121.0130679201073
    icon: https://maps.gstatic.com/mapfiles/place_api/icons/v1/png_71/restaurant-71.png
    icon_background_color: "#FF9E67"
    icon_mask_base_uri: https://maps.gstatic.com/mapfiles/place_api/icons/v2/restaurant_pinlet
    name: 松江屋-慈雲店
    opening_hours:
      open_now: false
    photos:
    - height: 2272
      html_attributions:
      - <a href="https://maps.google.com/maps/contrib/106871761444066254656">江武郎</a>
      photo_reference: AcYSjRhUhRUeLEtEaRQUOReOQzO_Qaq5D7LoXTmYKTda3w9RUJXYHFRAf0iBuZQYbQQ84fOhyCR5X6wGF3LIDlLp2j2zbCPUjYeMtVlpo_FC5IG1gjSUvRowraJhovay8JBiUFDvQebef1MD22xF5-y_otrgHGBcbmEQk8AisSgfIgyp287P
      width: 4032
    place_id: ChIJnW9_Gj82aDQRnsNzp0Mfge8
    plus_code:
      compound_code: Q2R7+6Q 東區 新竹市
      global_code: 7QP3Q2R7+6Q
    price_level: 2
    rating: 4.2
    reference: ChIJnW9_Gj82aDQRnsNzp0Mfge8
    types:
    - restaurant
    - point_of_interest
    - food
    - establishment
    user_ratings_total: 584
  - business_status: OPERATIONAL
    formatted_address: 300台灣新竹市東區東門街32號
    geometry:
      location:
        lat: 24.8043375
        lng: 120.9739152
      viewport:
        northeast:
          lat: 24.80558572989272
          lng: 120.9752640298927
        southwest:
          lat: 24.80288607010728
          lng: 120.9725643701072
    icon: https://maps.gstatic.com/mapfiles/place_api/icons/v1/png_71/generic_business-71.png
    icon_background_color: "#7B9EB0"
    icon_mask_base_uri: https://maps.gstatic.com/mapfiles/place_api/icons/v2/generic_pinlet
    name: 辛志平校長故居(前棟)/TAIVII餐酒館(後棟)
    opening_hours:
      open_now: false
    photos:
    - height: 2691
      html_attributions:
      - <a href="https://maps.google.com/maps/contrib/100832420261391309100">cattyjoy</a>
      photo_reference: AcYSjRhlwsznfr0fZqOI5FpuMTKOb6Iuz8DWbYpgKRa3kDJ4QF2f5YsVHDXqAvIOdiuQnmpw-zyXO7NzBkvxdqAx1IAPsxfKO90032ml58MfpMAYfNOkASZ9VB20ObuQXd3pBeaC3ptc49nH0hyOQSG--Q0yuWi2S_CZKgROwL4ZuKqig3ae
      width: 4032
    place_id: ChIJgQJ9bqM1aDQRJcvuSbkJMcg
    plus_code:
      compound_code: RX3F+PH 東區 新竹市
      global_code: 7QP2RX3F+PH
    rating: 4.3
    reference: ChIJgQJ9bqM1aDQRJcvuSbkJMcg
    types:
    - restaurant
    - point_of_interest
    - food
    - establishment
    user_ratings_total: 1803
  - business_status: OPERATIONAL
    formatted_address: 300台灣新竹市北區公道五路四段513號
    geometry:
      location:
        lat: 24.8272756
        lng: 120.966601
      viewport:
        northeast:
          lat: 24.82863487989272
          lng: 120.9679262798928
        southwest:
          lat: 24.82593522010728
          lng: 120.9652266201073
    icon: https://maps.gstatic.com/mapfiles/place_api/icons/v1/png_71/restaurant-71.png
    icon_background_color: "#FF9E67"
    icon_mask_base_uri: https://maps.gstatic.com/mapfiles/place_api/icons/v2/restaurant_pinlet
    name: Basement Cafe
    opening_hours:
      open_now: false
    photos:
    - height: 1693
      html_attributions:
      - <a href="https://maps.google.com/maps/contrib/108118191691552386896">黃翊婷</a>
      photo_reference: AcYSjRhwcnEI_3dkwgLUyhgPG8HtnUtwOZxC9ftFDhjpFe1OH6XcBmn6UfQfXG7xdpsDQeJ66YiwTOMm8pbUPg2EzpYh0LX8GvZ2IAkvnU6veJCz93SJqh3eIJjnJ7bGfIvZ-PkUtXV9hzcpUPtthY0pHdPex0EjQPGJekr1WM0NzHGScVt-
      width: 1440
    place_id: ChIJJ4V6ZRk1aDQR6wqE3-tpsbc
    plus_code:
      compound_code: RXG8+VJ 北區 新竹市
      global_code: 7QP2RXG8+VJ
    rating: 4.4
    reference: ChIJJ4V6ZRk1aDQR6wqE3-tpsbc
    types:
    - restaurant
    - point_of_interest
    - store
    - food
    - establishment
    user_ratings_total: 109
  - business_status: OPERATIONAL
    formatted_address: 408台灣台中市南屯區文心南二路396號
    geometry:
      location:
        lat: 24.1362083
        lng: 120.6446009
      viewport:
        northeast:
          lat: 24.13744522989272
          lng: 120.6459480798927
        southwest:
          lat: 24.13474557010728
          lng: 120.6432484201073
    icon: https://maps.gstatic.com/mapfiles/place_api/icons/v1/png_71/restaurant-71.png
    icon_background_color: "#FF9E67"
    icon_mask_base_uri: https://maps.gstatic.com/mapfiles/place_api/icons/v2/restaurant_pinlet
    name: 背包客饞/早午餐/咖啡/拿鐵咖啡/手沖咖啡/美式咖啡/每日特調咖啡/醒腦鮪魚漢堡/台中美食/台中柯基咖啡店/寵物友善咖啡店/南屯美食/MarieSharp燈籠辣椒實體店/澳洲打工渡假
    opening_hours:
      open_now: false
    photos:
    - height: 3024
      html_attributions:
      - <a href="https://maps.google.com/maps/contrib/104557074181464338045">王翔</a>
      photo_reference: AcYSjRgcQ4XCuOQF0_uNv9lAOxUahjhMaB-nW6_McU2iY1YCvIGL5DQ9iJnd-mJ50cvzx2AcY7yk6IMFg7ELWmBl5GBF1dPxDKXJn0jCD3k8IsDVyudSFFAkoaBBZ16PtWFi0zNHVxjMjCwueN3pqtf5WUch4y6nnbxXosrIFv1tY7EYu4jk
      width: 4032
    place_id: ChIJgSzmJv49aTQRYv4ZP7SCYWQ
    plus_code:
      compound_code: 4JPV+FR 南屯區 台中市
      global_code: 7QP24JPV+FR
    rating: 4.9
    reference: ChIJgSzmJv49aTQRYv4ZP7SCYWQ
    types:
    - cafe
    - restaurant
    - point_of_interest
    - store
    - food
    - establishment
    user_ratings_total: 264
  - business_status: OPERATIONAL
    formatted_address: 300台灣新竹市東區仁愛街44號
    geometry:
      location:
        lat: 24.8076897
        lng: 120.9710646
      viewport:
        northeast:
          lat: 24.80902682989272
          lng: 120.9723941298927
        southwest:
          lat: 24.80632717010728
          lng: 120.9696944701073
    icon: https://maps.gstatic.com/mapfiles/place_api/icons/v1/png_71/restaurant-71.png
    icon_background_color: "#FF9E67"
    icon_mask_base_uri: https://maps.gstatic.com/mapfiles/place_api/icons/v2/restaurant_pinlet
    name: YAHYAHSHUO爺爺說
    opening_hours:
      open_now: false
    photos:
    - height: 2304
      html_attributions:
      - <a href="https://maps.google.com/maps/contrib/102269442361694231745">A Google
        User</a>
      photo_reference: AcYSjRhnoTKP1v3QZj-0cOLbZcgIgjYFnRz0mF1wo-3lbxgryofcHdjX8-N4x_vipN7OpH8qrI6YJh5x-o6-YC43_1k9s9Ox4tykQyOqJB9IedMb8CkhcA5N8R6rqlj71eSshb1xVbLU85byGfDUrzm_20sq8dqK6PwMX74VtKhh_ASlae9H
      width: 2880
    place_id: ChIJaV-lV1c1aDQR0jRhvwrrH1Y
    plus_code:
      compound_code: RX5C+3C 東區 新竹市
      global_code: 7QP2RX5C+3C
    rating: 4.1
    reference: ChIJaV-lV1c1aDQR0jRhvwrrH1Y
    types:
    - restaurant
    - point_of_interest
    - food
    - establishment
    user_ratings_total: 319
  - business_status: OPERATIONAL
    formatted_address: 360台灣苗栗縣苗栗市新英里15鄰新英110之5號
    geometry:
      location:
        lat: 24.5503671
        lng: 120.8035851
      viewport:
        northeast:
          lat: 24.55176597989272
          lng: 120.8048982798927
        southwest:
          lat: 24.54906632010728
          lng: 120.8021986201073
    icon: https://maps.gstatic.com/mapfiles/place_api/icons/v1/png_71/cafe-71.png
    icon_background_color: "#FF9E67"
    icon_mask_base_uri: https://maps.gstatic.com/mapfiles/place_api/icons/v2/cafe_pinlet
    name: 58咖啡行館
    opening_hours:
      open_now: false
    photos:
    - height: 3456
      html_attributions:
      - <a href="https://maps.google.com/maps/contrib/117365520780852826686">姬鴞</a>
      photo_reference: AcYSjRiU5k_Iy6l-mGez6d5XnFVrh8beqbhPLIxQ8F7fISLBCG55sDdse5tNgHy1LbkzH7LeigqQUibkAmxiSc0aubWm7eF44g69XMXyq7HFmkFoP8k4ZMNL0WjopcxoEgfGLXjUiyTFD3xb69PmWou4VqUqqmHM3TcCGUTsefscjCXU7CMg
      width: 4608
    place_id: ChIJW_qHeVipaTQRpUIBhE_XrzE
    plus_code:
      compound_code: HR23+4C 苗栗市 苗栗縣
      global_code: 7QP2HR23+4C
    rating: 4.1
    reference: ChIJW_qHeVipaTQRpUIBhE_XrzE
    types:
    - cafe
    - lodging
    - restaurant
    - point_of_interest
    - food
    - establishment
    user_ratings_total: 426
  - business_status: OPERATIONAL
    formatted_address: 330台灣桃園市桃園區大同路119號1樓
    geometry:
      location:
        lat: 24.9884453
        lng: 121.308913
      viewport:
        northeast:
          lat: 24.98982657989272
          lng: 121.3102592298927
        southwest:
          lat: 24.98712692010728
          lng: 121.3075595701073
    icon: https://maps.gstatic.com/mapfiles/place_api/icons/v1/png_71/restaurant-71.png
    icon_background_color: "#FF9E67"
    icon_mask_base_uri: https://maps.gstatic.com/mapfiles/place_api/icons/v2/restaurant_pinlet
    name: 客棧台式簡餐餐廳
    opening_hours:
      open_now: false
    photos:
    - height: 4000
      html_attributions:
      - <a href="https://maps.google.com/maps/contrib/103497052891676452930">Eric
        Yang</a>
      photo_reference: AcYSjRgH76pjaxE2xGOjrvVovoE8FRR6XxqlK2EPVBoO9nKQZ2alJn0Hw9Oz3OaoW0rMUjB9kMmN-sTmJUYHMa79Mfq-nG06WVUNDJ77hcWA6ace2ZNVzuc_D6kSEDpXSIVt1p_0N0c10nkeXJZUd6FszfgPLr8j7LN66stwQNxpSkw3AUiv
      width: 3000
    place_id: ChIJSxT44C0faDQRMmbbAnv7P9Y
    plus_code:
      compound_code: X8Q5+9H 桃園區 桃園市
      global_code: 7QP3X8Q5+9H
    rating: 4.6
    reference: ChIJSxT44C0faDQRMmbbAnv7P9Y
    types:
    - restaurant
    - point_of_interest
    - food
    - establishment
    user_ratings_total: 37
  - business_status: OPERATIONAL
    formatted_address: 244台灣新北市林口區東湖路155號
    geometry:
      location:
        lat: 25.0729537
        lng: 121.3829821
      viewport:
        northeast:
          lat: 25.07429892989272
          lng: 121.3843750298927
        southwest:
          lat: 25.07159927010728
          lng: 121.3816753701072
    icon: https://maps.gstatic.com/mapfiles/place_api/icons/v1/png_71/cafe-71.png
    icon_background_color: "#FF9E67"
    icon_mask_base_uri: https://maps.gstatic.com/mapfiles/place_api/icons/v2/cafe_pinlet
    name: Walk in cafe - 東湖一店 【咖啡 甜點 輕食 下午茶 簡餐 包場 自助餐Buffet】
    opening_hours:
      open_now: false
    photos:
    - height: 3024
      html_attributions:
      - <a href="https://maps.google.com/maps/contrib/115904201165269574861">Hedy
        Chen</a>
      photo_reference: AcYSjRg0_uOsk7w9DwiKrEoRQW9lS1ASCQnqqb-w1DzMclivuPSItotBKz5KZ9D88EeCCSurpL5rdAhDMUnun_redLmPGULtkToBuyT178AMZpuQEM-5jpPtVb-6m_J0oPZbBdwmhzJqR9aDVCdnzIBZF6_i9Agz7DnMAZTPp1B6EdnSzvDS
      width: 4032
    place_id: ChIJqUuoXIKnQjQR9wrfXEt5pxA
    plus_code:
      compound_code: 39FM+55 林口區 新北市
      global_code: 7QQ339FM+55
    price_level: 2
    rating: 4.3
    reference: ChIJqUuoXIKnQjQR9wrfXEt5pxA
    types:
    - cafe
    - point_of_interest
    - store
    - food
    - establishment
    user_ratings_total: 1531
  - business_status: OPERATIONAL
    formatted_address: 303台灣新竹縣湖口鄉湖口老街199號
    geometry:
      location:
        lat: 24.8771751
        lng: 121.0574599
      viewport:
        northeast:
          lat: 24.87852032989272
          lng: 121.0588107798928
        southwest:
          lat: 24.87582067010728
          lng: 121.0561111201073
    icon: https://maps.gstatic.com/mapfiles/place_api/icons/v1/png_71/restaurant-71.png
    icon_background_color: "#FF9E67"
    icon_mask_base_uri: https://maps.gstatic.com/mapfiles/place_api/icons/v2/restaurant_pinlet
    name: 卡拉義式餐館-餐點全日供應 (菜單請至最新動態查看)
    opening_hours:
      open_now: false
    photos:
    - height: 1667
      html_attributions:
      - <a href="https://maps.google.com/maps/contrib/117590020985285777128">O610115
        Patty</a>
      photo_reference: AcYSjRgSRyk1x3atgcODA42e8rf1639zcJMH20FsxdRZDvjmivoxCoIWHFaMoV7F6qkX21PpZLAstTMkLaza4gNddcGeGK8aP7nHzWLTceaf2u_sliGVwDR_0se6DdUJWdjmPms_u-9RsQgmYOdXklkNRgxUY_p06I563odWwzic7_zviGkR
      width: 2304
    place_id: ChIJ0bhizJIwaDQRqr0D38SL7Lk
    plus_code:
      compound_code: V3G4+VX 湖口鄉 新竹縣
      global_code: 7QP3V3G4+VX
    rating: 4.7
    reference: ChIJ0bhizJIwaDQRqr0D38SL7Lk
    types:
    - restaurant
    - point_of_interest
    - food
    - establishment
    user_ratings_total: 419
  - business_status: OPERATIONAL
    formatted_address: 10491台灣台北市中山區松江路132巷17號
    geometry:
      location:
        lat: 25.0530127
        lng: 121.5310282
      viewport:
        northeast:
          lat: 25.05436172989272
          lng: 121.5323897298927
        southwest:
          lat: 25.05166207010728
          lng: 121.5296900701073
    icon: https://maps.gstatic.com/mapfiles/place_api/icons/v1/png_71/cafe-71.png
    icon_background_color: "#FF9E67"
    icon_mask_base_uri: https://maps.gstatic.com/mapfiles/place_api/icons/v2/cafe_pinlet
    name: 普莉斯咖啡館 please CAFE
    opening_hours:
      open_now: false
    photos:
    - height: 3024
      html_attributions:
      - <a href="https://maps.google.com/maps/contrib/111078907552198904381">Chen
        Ady</a>
      photo_reference: AcYSjRhPmc_JFkPVrUoQxIc-UIcvA2q7VK0lZgDoMVbjPJ_3UuweXRHVJHeqfdlvSXF1z-gFSabE17P3MDLUKiivpdosnaLxU5duIRKYC3k4sthAEiECMg2lRwA8MzmjNhWeDVjVydNCKsX27OBdvUT-B58gYei4MsvjaatfJ4JDTmhGVXA2
      width: 4032
    place_id: ChIJ-83o02CpQjQRIGwCuy_3VRU
    plus_code:
      compound_code: 3G3J+6C 中山區 台北市
      global_code: 7QQ33G3J+6C
    price_level: 2
    rating: 4.1
    reference: ChIJ-83o02CpQjQRIGwCuy_3VRU
    types:
    - cafe
    - restaurant
    - point_of_interest
    - store
    - food
    - establishment
    user_ratings_total: 282
  - business_status: OPERATIONAL
    formatted_address: 315台灣新竹縣峨眉鄉太平街8巷1-1號
    geometry:
      location:
        lat: 24.6844236
        lng: 120.9883426
      viewport:
        northeast:
          lat: 24.68575772989272
          lng: 120.9897304298927
        southwest:
          lat: 24.68305807010728
          lng: 120.9870307701073
    icon: https://maps.gstatic.com/mapfiles/place_api/icons/v1/png_71/cafe-71.png
    icon_background_color: "#FF9E67"
    icon_mask_base_uri: https://maps.gstatic.com/mapfiles/place_api/icons/v2/cafe_pinlet
    name: 雪之湖咖啡
    opening_hours:
      open_now: false
    photos:
    - height: 3024
      html_attributions:
      - <a href="https://maps.google.com/maps/contrib/114133860887991135812">Frank
        Huang</a>
      photo_reference: AcYSjRhomx7H0SYriGJrhvr53ctn_BJ9Wn__POqMRrUqMQY52kuOXLid-xFIRBOYlHpFA9MA0RraV7n9biVWvTcfop9-CzI_QRTXWdvRe5oqD5EKcHH8xOe-JvIiqSqYAVnex0wkZvVJ5Zz6RU-S_FfFRIvxxNazt-dLA-_X1dFGw8yDcL74
      width: 4032
    place_id: ChIJL_S8zalOaDQR-SrI9b63mwk
    plus_code:
      compound_code: MXMQ+Q8 峨眉鄉 新竹縣
      global_code: 7QP2MXMQ+Q8
    price_level: 2
    rating: 4
    reference: ChIJL_S8zalOaDQR-SrI9b63mwk
    types:
    - cafe
    - restaurant
    - point_of_interest
    - store
    - food
    - establishment
    user_ratings_total: 1236
  - business_status: OPERATIONAL
    formatted_address: 106台灣台北市大安區安和路一段21巷23號
    geometry:
      location:
        lat: 25.0396096
        lng: 121.5515844
      viewport:
        northeast:
          lat: 25.04088357989272
          lng: 121.5529093298928
        southwest:
          lat: 25.03818392010728
          lng: 121.5502096701073
    icon: https://maps.gstatic.com/mapfiles/place_api/icons/v1/png_71/cafe-71.png
    icon_background_color: "#FF9E67"
    icon_mask_base_uri: https://maps.gstatic.com/mapfiles/place_api/icons/v2/cafe_pinlet
    name: C25度咖啡館 |東區不限時咖啡廳| 忠孝敦化站| 生日慶生聚餐 | 義大利麵美食 | 早午餐
    opening_hours:
      open_now: false
    photos:
    - height: 3024
      html_attributions:
      - <a href="https://maps.google.com/maps/contrib/111195308372518518569">Liso
        Chu</a>
      photo_reference: AcYSjRi7Fk1dbYVOjH1iyT6YiF-YML5sngyjCS2dQ1h8LiA2nvl1Oh0I5psIRhh91RjHt6uHDbiZlGlJhzgaKiSRwEPYjj9XTMULCg6Ezx0FA-HwQ4zG51VowUAQmBhJ6Ezo0dKlxUFKLoXqKb0nnNekW0_EUNBkoKAkJmsJrNmrdAi3SQ0L
      width: 4032
    place_id: ChIJyekOec-rQjQRE3MGd5lZJGs
    plus_code:
      compound_code: 2HQ2+RJ 大安區 台北市
      global_code: 7QQ32HQ2+RJ
    price_level: 2
    rating: 4.3
    reference: ChIJyekOec-rQjQRE3MGd5lZJGs
    types:
    - cafe
    - point_of_interest
    - food
    - establishment
    user_ratings_total: 1203
  - business_status: OPERATIONAL
    formatted_address: 300台灣新竹市北區興南街28號1樓
    geometry:
      location:
        lat: 24.8012472
        lng: 120.9634923
      viewport:
        northeast:
          lat: 24.80257597989272
          lng: 120.9648126298927
        southwest:
          lat: 24.79987632010728
          lng: 120.9621129701073
    icon: https://maps.gstatic.com/mapfiles/place_api/icons/v1/png_71/restaurant-71.png
    icon_background_color: "#FF9E67"
    icon_mask_base_uri: https://maps.gstatic.com/mapfiles/place_api/icons/v2/restaurant_pinlet
    name: CURRY WU新竹旗艦店
    opening_hours:
      open_now: false
    photos:
    - height: 2880
      html_attributions:
      - <a href="https://maps.google.com/maps/contrib/113672151089298224160">Pinhsuan
        Wang</a>
      photo_reference: AcYSjRhDZf0qwnxvlgwSKvpWPp_Sbp0cTzuP9IC-kyWp8rzEwqj2yAMXePj4dQzjCIZ9akTXK-gdAdE7dg1uvGBGfo5jWa5yw4tAabxFpdE0tOsdysP795r22q1j3gNxomawLY0cPVsPXdkuhtBS3A8l1QT8Nnuoss1KaZEQDcZfJ0dT4J7m
      width: 2799
    place_id: ChIJK4MYiMA1aDQRWzMJFA2xXwo
    plus_code:
      compound_code: RX27+F9 北區 新竹市
      global_code: 7QP2RX27+F9
    rating: 4.9
    reference: ChIJK4MYiMA1aDQRWzMJFA2xXwo
    types:
    - restaurant
    - point_of_interest
    - food
    - establishment
    user_ratings_total: 295
  status: OK
咖啡的家:
  html_attributions: []
  results:
  - business_status: OPERATIONAL
    formatted_address: 300台灣新竹市東區科學園路72號
    geometry:
      location:
        lat: 24.7850772
        lng: 121.0104455
      viewport:
        northeast:
          lat: 24.78643512989273
          lng: 121.0118139298928
        southwest:
          lat: 24.78373547010728
          lng: 121.0091142701073
    icon: https://maps.gstatic.com/mapfiles/place_api/icons/v1/png_71/cafe-71.png
    icon_background_color: "#FF9E67"
    icon_mask_base_uri: https://maps.gstatic.com/mapfiles/place_api/icons/v2/cafe_pinlet
    name: 咖啡的家
    opening_hours:
      open_now: false
    photos:
    - height: 3456
      html_attributions:
      - <a href="https://maps.google.com/maps/contrib/113906810649197134493">黃惠嶺</a>
      photo_reference: AcYSjRg-7wVZF_z-PaZFjOOqjpJgMalTzXJH2i73sTT36lmLJ-ASt_0gm8tqqJNCyGN2uYiTknE6XmDDoRJjb2vwGdRF4WxuKs2_jGoQ5KFcbD9CZ1-kWxkXV90TS8_cSoWHw8jWy89uYOZmUhDA9aWrw19Vk_MZhPTs1xUC3WeUmD064Fo6
      width: 4608
    place_id: ChIJVWnppBU2aDQRkE9frakGqPw
    plus_code:
      compound_code: Q2P6+25 東區 新竹市
      global_code: 7QP3Q2P6+25
    rating: 4.6
    reference: ChIJVWnppBU2aDQRkE9frakGqPw
    types:
    - cafe
    - point_of_interest
    - food
    - establishment
    user_ratings_total: 178
  status: OK
木耳生活藝術之FamilyPizza:
  html_attributions: []
  results:
  - business_status: OPERATIONAL
    formatted_address: 302台灣新竹縣竹北市高鐵二路65號
    geometry:
      location:
        lat: 24.8057719
        lng: 121.0368846
      viewport:
        northeast:
          lat: 24.80712262989272
          lng: 121.0381935298927
        southwest:
          lat: 24.80442297010728
          lng: 121.0354938701073
    icon: https://maps.gstatic.com/mapfiles/place_api/icons/v1/png_71/restaurant-71.png
    icon_background_color: "#FF9E67"
    icon_mask_base_uri: https://maps.gstatic.com/mapfiles/place_api/icons/v2/restaurant_pinlet
    name: Family Pizza 手工柴燒窯烤比薩-竹北高鐵六家總店
    opening_hours:
      open_now: false
    photos:
    - height: 3024
      html_attributions:
      - <a href="https://maps.google.com/maps/contrib/116341086186887368823">David
        Cheng</a>
      photo_reference: AcYSjRhbwrS7azFjwwInRvk1-z7T--qklfJyk-gCYnLT3ueiKw9_QSiaLFxhBMuUPuLp4HucPp0Alb20BGIbiCYPcNnePRib1usLlXcaPmotXXk5rI-P9SAt5WO88-mmDKZO2jyD7KiqTeM906d1gNx_WA498i-WT8Rfl7cBTadBmHiHr4kP
      width: 4032
    place_id: ChIJn2Jgrqs3aDQRZ3QzIrgPdSA
    plus_code:
      compound_code: R24P+8Q 竹北市 新竹縣
      global_code: 7QP3R24P+8Q
    price_level: 2
    rating: 4.4
    reference: ChIJn2Jgrqs3aDQRZ3QzIrgPdSA
    types:
    - restaurant
    - point_of_interest
    - food
    - establishment
    user_ratings_total: 1400
  - business_status: OPERATIONAL
    formatted_address: 號, No. 95勝利六街竹北市新竹縣台灣 302
    geometry:
      location:
        lat: 24.8246471
        lng: 121.0271917
      viewport:
        northeast:
          lat: 24.82597207989272
          lng: 121.0285297298928
        southwest:
          lat: 24.82327242010728
          lng: 121.0258300701073
    icon: https://maps.gstatic.com/mapfiles/place_api/icons/v1/png_71/shopping-71.png
    icon_background_color: "#4B96F3"
    icon_mask_base_uri: https://maps.gstatic.com/mapfiles/place_api/icons/v2/shopping_pinlet
    name: 藝術的家-勝利店
    opening_hours:
      open_now: false
    photos:
    - height: 1959
      html_attributions:
      - <a href="https://maps.google.com/maps/contrib/104627372388832880833">A Google
        User</a>
      photo_reference: AcYSjRhQMjNpmJ1lJy4uMxzKN6J00WZ2okWxdkDY-MDX6DeQIbjGwNqny5EiiVmvHRtl8_XxaRkx6CYh7RydzwZDUo83XCVPf-XpivmUPtlrdwQJqoj8LL4xCiQdtyspl8hxJRUC6Vl8Env-V5xzzi5Ps1Ixo3FlbNEwZ45N186C3v4lDEPL
      width: 2268
    place_id: ChIJuySee-Q2aDQRxYJiAPDxJ5I
    plus_code:
      compound_code: R2FG+VV 竹北市 新竹縣
      global_code: 7QP3R2FG+VV
    rating: 4.4
    reference: ChIJuySee-Q2aDQRxYJiAPDxJ5I
    types:
    - store
    - point_of_interest
    - establishment
    user_ratings_total: 29
  - business_status: OPERATIONAL
    formatted_address: 108台灣台北市萬華區西寧南路50巷1號
    geometry:
      location:
        lat: 25.044367
        lng: 121.5060389
      viewport:
        northeast:
          lat: 25.04569647989272
          lng: 121.5073852798927
        southwest:
          lat: 25.04299682010728
          lng: 121.5046856201073
    icon: https://maps.gstatic.com/mapfiles/place_api/icons/v1/png_71/generic_business-71.png
    icon_background_color: "#7B9EB0"
    icon_mask_base_uri: https://maps.gstatic.com/mapfiles/place_api/icons/v2/generic_pinlet
    name: 木耳生活藝術
    opening_hours:
      open_now: false
    photos:
    - height: 2448
      html_attributions:
      - <a href="https://maps.google.com/maps/contrib/109497420181879809758">A Google
        User</a>
      photo_reference: AcYSjRj0A7AbgscVRVQtvDFbZuXcqv-DZ-NAqTqXou8e1Dwu1PSD7hDQaNFH63QCfz523KL6Uck6xFIT9eR0cCvDERdBLsq05YyDiMSrMHK9zwaZ8dX3HT4ns_8eVtgUhu4pAOc746Xwlt6gNbvuHSuEi0u9db_FnUbL3JLxllJhrr_R2yeT
      width: 3522
    place_id: ChIJS32Zyww3aDQRz75gCnsYh8U
    plus_code:
      compound_code: 2GV4+PC 萬華區 台北市
      global_code: 7QQ32GV4+PC
    rating: 1.8
    reference: ChIJS32Zyww3aDQRz75gCnsYh8U
    types:
    - general_contractor
    - point_of_interest
    - establishment
    user_ratings_total: 4
  - business_status: CLOSED_PERMANENTLY
    formatted_address: No. 77-2號, 金城一路東區新竹市台灣 300
    geometry:
      location:
        lat: 24.7953815
        lng: 121.0040883
      viewport:
        northeast:
          lat: 24.79657422989272
          lng: 121.0055436298927
        southwest:
          lat: 24.79387457010728
          lng: 121.0028439701073
    icon: https://maps.gstatic.com/mapfiles/place_api/icons/v1/png_71/restaurant-71.png
    icon_background_color: "#FF9E67"
    icon_mask_base_uri: https://maps.gstatic.com/mapfiles/place_api/icons/v2/restaurant_pinlet
    name: Family Pizza 手工窯烤比薩 光復店
    permanently_closed: true
    photos:
    - height: 1108
      html_attributions:
      - <a href="https://maps.google.com/maps/contrib/118413885348824314185">A Google
        User</a>
      photo_reference: AcYSjRjwy9bet950jAE-oxf4815TvLO7FTsTWgu8K4q1Dop-_KfpO4IzzEOqIZQutFlE0Evpgu1j1VtGClBeJaDjuGmv-maobx7dC7vc-NO7CRWA3Y5s0wrqnWxOShbp95VZzS0o2lFtcM3YerWisHsQR2iCrbqEh_L_f6bHlCaIEjAwdb3M
      width: 1478
    place_id: ChIJ0U71smw2aDQR7vXIqcqmg9I
    plus_code:
      compound_code: Q2W3+5J 東區 新竹市
      global_code: 7QP3Q2W3+5J
    price_level: 2
    rating: 4.5
    reference: ChIJ0U71smw2aDQR7vXIqcqmg9I
    types:
    - meal_delivery
    - restaurant
    - point_of_interest
    - store
    - food
    - establishment
    user_ratings_total: 236
  status: OK
SUSUMU:
  html_attributions: []
  results:
  - business_status: CLOSED_TEMPORARILY
    formatted_address: 300032台灣新竹市東區西大路240號
    geometry:
      location:
        lat: 24.7984737
        lng: 120.9684659
      viewport:
        northeast:
          lat: 24.79980527989272
          lng: 120.9697879298927
        southwest:
          lat: 24.79710562010727
          lng: 120.9670882701073
    icon: https://maps.gstatic.com/mapfiles/place_api/icons/v1/png_71/shopping-71.png
    icon_background_color: "#4B96F3"
    icon_mask_base_uri: https://maps.gstatic.com/mapfiles/place_api/icons/v2/shopping_pinlet
    name: SUSUMU
    permanently_closed: true
    photos:
    - height: 3024
      html_attributions:
      - <a href="https://maps.google.com/maps/contrib/118109174414380138635">懶喵兒</a>
      photo_reference: AcYSjRiP0bnuOmpGRAobpeuAYxrvBVFal2LQ_1C-cWZIHMTFNS_NyBkB-ZdvwS_2qr3Z8rcjIW1e1_4pbR0_RpN2BbMj5t21b4wycf50xfH2WPTv-ckfcSbZejRwDPLlI_bIASe3tVkth-OrsM3oZ_OFeC7EUW0oXcf8xiPrJZaeymPHSPdb
      width: 4032
    place_id: ChIJN9rzGRc1aDQRyUv6GgWDPDs
    plus_code:
      compound_code: QXX9+99 東區 新竹市
      global_code: 7QP2QXX9+99
    rating: 4.3
    reference: ChIJN9rzGRc1aDQRyUv6GgWDPDs
    types:
    - point_of_interest
    - food
    - store
    - establishment
    user_ratings_total: 40
  status: OK
謐謐甜點:
  html_attributions: []
  results:
  - business_status: OPERATIONAL
    formatted_address: 300台灣新竹市東區中央路310號
    geometry:
      location:
        lat: 24.8101952
        lng: 120.9780461
      viewport:
        northeast:
          lat: 24.81158202989272
          lng: 120.9793683798927
        southwest:
          lat: 24.80888237010727
          lng: 120.9766687201073
    icon: https://maps.gstatic.com/mapfiles/place_api/icons/v1/png_71/cafe-71.png
    icon_background_color: "#FF9E67"
    icon_mask_base_uri: https://maps.gstatic.com/mapfiles/place_api/icons/v2/cafe_pinlet
    name: The Secret 謐謐
    opening_hours:
      open_now: false
    photos:
    - height: 3024
      html_attributions:
      - <a href="https://maps.google.com/maps/contrib/106395549756922440589">蕭靖恩</a>
      photo_reference: AcYSjRjPMu9LlcAi74niAkGZcVwEGNhBXui6Kz99aUgQ_h7w2MBRws1eMkdiwMIibef0lJVylSmL-iAhbY_fBeqPIXLznAM3H64exxbXIUDKZRCl78nMoV7kzTOhPJTysqB62r4XOmQCvdqY6Eaj4CHTezWTsGud4DMgL_JGvcVGU8Bvmes-
      width: 4032
    place_id: ChIJ-xWLrqs3aDQRKAw-dCAxpYQ
    plus_code:
      compound_code: RX6H+36 東區 新竹市
      global_code: 7QP2RX6H+36
    price_level: 2
    rating: 4.4
    reference: ChIJ-xWLrqs3aDQRKAw-dCAxpYQ
    types:
    - cafe
    - restaurant
    - food
    - point_of_interest
    - establishment
    user_ratings_total: 384
  status: OK
沐咖啡:
  html_attributions: []
  results:
  - business_status: OPERATIONAL
    formatted_address: 300台灣新竹市東區光復路一段89巷131號
    geometry:
      location:
        lat: 24.7784923
        lng: 121.0251745
      viewport:
        northeast:
          lat: 24.77983537989272
          lng: 121.0265067798927
        southwest:
          lat: 24.77713572010727
          lng: 121.0238071201073
    icon: https://maps.gstatic.com/mapfiles/place_api/icons/v1/png_71/cafe-71.png
    icon_background_color: "#FF9E67"
    icon_mask_base_uri: https://maps.gstatic.com/mapfiles/place_api/icons/v2/cafe_pinlet
    name: 沐 咖啡
    opening_hours:
      open_now: false
    photos:
    - height: 3024
      html_attributions:
      - <a href="https://maps.google.com/maps/contrib/111817028447404051359">A Google
        User</a>
      photo_reference: AcYSjRgT1RGgAA3tfjT16ABu-neR2IRzaib1nfrA1zVN-uAMqWsF3PJAb4MTMr2o8P1mzSYOHGUegpN_g8D98vVgrlo5E72sk_drUBAgNwL_v0bB-rSzGeT_gbIErWsonVDzXfkN152zknXaJPdu6oXm6lw8BtfznTZWCfTtjDk7tsOTQrzU
      width: 4032
    place_id: ChIJ20DmMy42aDQRdTN_lTS2EuA
    plus_code:
      compound_code: Q2HG+C3 東區 新竹市
      global_code: 7QP3Q2HG+C3
    price_level: 2
    rating: 4.5
    reference: ChIJ20DmMy42aDQRdTN_lTS2EuA
    types:
    - cafe
    - food
    - point_of_interest
    - establishment
    user_ratings_total: 230
  - business_status: OPERATIONAL
    formatted_address: 302台灣新竹縣竹北市台元二街1號10樓號咖啡廳
    geometry:
      location:
        lat: 24.8401186
        lng: 121.0204295
      viewport:
        northeast:
          lat: 24.84140637989272
          lng: 121.0219004298927
        southwest:
          lat: 24.83870672010728
          lng: 121.0192007701073
    icon: https://maps.gstatic.com/mapfiles/place_api/icons/v1/png_71/restaurant-71.png
    icon_background_color: "#FF9E67"
    icon_mask_base_uri: https://maps.gstatic.com/mapfiles/place_api/icons/v2/restaurant_pinlet
    name: Mu Coffee 沐 咖啡
    opening_hours:
      open_now: false
    photos:
    - height: 2184
      html_attributions:
      - <a href="https://maps.google.com/maps/contrib/110612890119655890254">Bruce
        Chien</a>
      photo_reference: AcYSjRhrFPj1Yq9mJHYQ_5refhX9WiJDxCSNeASEWSQEoec7Rqk8ExPGxeanFPpcOjA-6bNyM51cMjhgASh37pNBHBPexHcyz-8Zp0HQarq2XZMghNhFjMfZWSk8NJUMS5VOnNL068DCiaGN4FVZdMCJnl5Ut_RRJW8z1afnFSacgSEcCTYF
      width: 2916
    place_id: ChIJayJu0583aDQR70MoyYf8HLE
    plus_code:
      compound_code: R2RC+25 竹北市 新竹縣
      global_code: 7QP3R2RC+25
    rating: 5
    reference: ChIJayJu0583aDQR70MoyYf8HLE
    types:
    - restaurant
    - food
    - point_of_interest
    - establishment
    user_ratings_total: 2
  status: OK
CafeOnAir:
  html_attributions: []
  results: []
  status: ZERO_RESULTS
I'mmatcafe小墊子:
  html_attributions: []
  results:
  - business_status: OPERATIONAL
    formatted_address: 300台灣新竹市東區三民路154號
    geometry:
      location:
        lat: 24.8098502
        lng: 120.97912
      viewport:
        northeast:
          lat: 24.81125837989272
          lng: 120.9804329298928
        southwest:
          lat: 24.80855872010728
          lng: 120.9777332701073
    icon: https://maps.gstatic.com/mapfiles/place_api/icons/v1/png_71/shopping-71.png
    icon_background_color: "#4B96F3"
    icon_mask_base_uri: https://maps.gstatic.com/mapfiles/place_api/icons/v2/shopping_pinlet
    name: 小墊子咖啡甜點 ImMat Cafe
    opening_hours:
      open_now: false
    photos:
    - height: 1153
      html_attributions:
      - <a href="https://maps.google.com/maps/contrib/114833454667992134543">小墊子</a>
      photo_reference: AcYSjRhE5Ggi4cEvA97vq87nTmZ9gMC9MmFAdk_ycUqPqsBVmFAy-h5Ci6wS36347BJv49dTM10N1QpsJyXbQ2ddo0Wmo54aYks4PAODDid2zhi6Nudk6bWZF73yo_8UaQ4lhRMdoLgu5qaOTf4jouaUMnWWdHbNCBMW3fefw8yCV_Iq3xrU
      width: 2048
    place_id: ChIJB48r8do1aDQRzTgEg63wN7w
    plus_code:
      compound_code: RX5H+WM 東區 新竹市
      global_code: 7QP2RX5H+WM
    price_level: 2
    rating: 4.4
    reference: ChIJB48r8do1aDQRzTgEg63wN7w
    types:
    - cafe
    - bakery
    - food
    - point_of_interest
    - store
    - establishment
    user_ratings_total: 936
  status: OK
握咖啡OHcafe-新竹金山店:
  html_attributions: []
  results:
  - business_status: OPERATIONAL
    formatted_address: 300台灣新竹市東區金山八街48號
    geometry:
      location:
        lat: 24.7778161
        lng: 121.0203251
      viewport:
        northeast:
          lat: 24.77916247989272
          lng: 121.0217465298927
        southwest:
          lat: 24.77646282010728
          lng: 121.0190468701073
    icon: https://maps.gstatic.com/mapfiles/place_api/icons/v1/png_71/cafe-71.png
    icon_background_color: "#FF9E67"
    icon_mask_base_uri: https://maps.gstatic.com/mapfiles/place_api/icons/v2/cafe_pinlet
    name: 握咖啡 Oh!Cafe - 新竹金山店
    opening_hours:
      open_now: false
    photos:
    - height: 892
      html_attributions:
      - <a href="https://maps.google.com/maps/contrib/115102237870421686090">A Google
        User</a>
      photo_reference: AcYSjRjcmPgCqbsyvRXFHmn6NrSbjDRjRYGtkyt5lxSuxbOvZr8V29FpXvR4vfITaq0w4Argc1y0tZWurGc0Z-uDEqDjLn_wIjMfVb0hswnTlp5ynGktkIY5gXQ3sa2SwvqgdaLxKsZUFlBzSdvUZujjgWkmRhHQQLfdo9ZX5u7HqGa6WhGB
      width: 1586
    place_id: ChIJgWGNoCU2aDQRm8Qb4tYu6Mo
    plus_code:
      compound_code: Q2HC+44 東區 新竹市
      global_code: 7QP3Q2HC+44
    price_level: 2
    rating: 4.5
    reference: ChIJgWGNoCU2aDQRm8Qb4tYu6Mo
    types:
    - cafe
    - food
    - point_of_interest
    - establishment
    user_ratings_total: 246
  status: OK
見域Kendama:
  html_attributions: []
  results:
  - business_status: OPERATIONAL
    formatted_address: 300台灣新竹市北區長安街6號
    geometry:
      location:
        lat: 24.805101
        lng: 120.965631
      viewport:
        northeast:
          lat: 24.80644112989272
          lng: 120.9669044798927
        southwest:
          lat: 24.80374147010728
          lng: 120.9642048201073
    icon: https://maps.gstatic.com/mapfiles/place_api/icons/v1/png_71/shopping-71.png
    icon_background_color: "#4B96F3"
    icon_mask_base_uri: https://maps.gstatic.com/mapfiles/place_api/icons/v2/shopping_pinlet
    name: 見域 Citilens
    photos:
    - height: 1675
      html_attributions:
      - <a href="https://maps.google.com/maps/contrib/115526952057580322082">見域</a>
      photo_reference: AcYSjRixMNMBV7dG4xAx-g3NGYd1UXC5HNH9rJFlAjorBLYx_v2Y6yJmkXkvr-Gkbu4sGoDcWR-Rvk5jo0FKx3HJpf4G3P-TPEw9Nuc7b3xlx049BMZaGbRn1dMU9-R0Nu3cT9DmXJzUxxJt-jgGm_BCyE3hgUrpX027JKccLeoxMdEWZZtq
      width: 2232
    place_id: ChIJF-wQi8A1aDQRrmWQdkOgJfs
    plus_code:
      compound_code: RX48+27 北區 新竹市
      global_code: 7QP2RX48+27
    rating: 4.8
    reference: ChIJF-wQi8A1aDQRrmWQdkOgJfs
    types:
    - store
    - point_of_interest
    - establishment
    user_ratings_total: 118
  status: OK
綠禾塘。翔頂咖啡:
  html_attributions: []
  results:
  - business_status: OPERATIONAL
    geometry:
      location:
        lat: 24.811869
        lng: 121.0265683
      viewport:
        northeast:
          lat: 24.81310452989272
          lng: 121.0278424298927
        southwest:
          lat: 24.81040487010728
          lng: 121.0251427701073
    icon: https://maps.gstatic.com/mapfiles/place_api/icons/v1/png_71/cafe-71.png
    icon_background_color: "#FF9E67"
    icon_mask_base_uri: https://maps.gstatic.com/mapfiles/place_api/icons/v2/cafe_pinlet
    name: 綠禾塘
    opening_hours:
      open_now: false
    photos:
    - height: 3265
      html_attributions:
      - <a href="https://maps.google.com/maps/contrib/105800822772161096320">陳泗滄</a>
      photo_reference: AcYSjRhqNpTqhWVZrSzBAs3PH7qIsJpAOH4P63ocArprkhoEXoKnZZtuTkYr885smF6qj2kgjbID__bLB0r1PZ9QpjIxTnZF8chr6r51fhupxJwRDGJAI_mMVuLC6UXRlLT5ZDjGsc9Ivu0XrYeyFymCvjIz6252F0EW5BWQOt9tAEProFk
      width: 4899
    place_id: ChIJBazovPg2aDQRGPufQA76_ec
    plus_code:
      compound_code: R26G+PJ 竹北市 新竹縣
      global_code: 7QP3R26G+PJ
    rating: 4.5
    reference: ChIJBazovPg2aDQRGPufQA76_ec
    types:
    - cafe
    - food
    - point_of_interest
    - establishment
    user_ratings_total: 98
  - business_status: OPERATIONAL
    geometry:
      location:
        lat: 24.8118964
        lng: 121.0265262
      viewport:
        northeast:
          lat: 24.81313027989272
          lng: 121.0277992298927
        southwest:
          lat: 24.81043062010728
          lng: 121.0250995701073
    icon: https://maps.gstatic.com/mapfiles/place_api/icons/v1/png_71/cafe-71.png
    icon_background_color: "#FF9E67"
    icon_mask_base_uri: https://maps.gstatic.com/mapfiles/place_api/icons/v2/cafe_pinlet
    name: 翔頂咖啡
    opening_hours:
      open_now: false
    photos:
    - height: 7008
      html_attributions:
      - <a href="https://maps.google.com/maps/contrib/108425827468198835550">張揚</a>
      photo_reference: AcYSjRigwcOBG_kEuRXsIOzLHLX83hmnoOD1DDiNPnArdmFu3lVL7kUNhduZboZOEcFoyq04WXnWWIsB4dL5eypL4et6Ml04HPJ7fTd0lFgaLBtF6daDaqhflsSIDgnqGJSZx2htJleTimyLlkGtylwCBpPNPKoxurg34ExH23W3BszvJG3O
      width: 4672
    place_id: ChIJob7ivPg2aDQRJRL_C_g5PR8
    plus_code:
      compound_code: R26G+QJ 竹北市 新竹縣
      global_code: 7QP3R26G+QJ
    rating: 4.5
    reference: ChIJob7ivPg2aDQRJRL_C_g5PR8
    types:
    - cafe
    - food
    - point_of_interest
    - establishment
    user_ratings_total: 20
  status: OK
Hollatte馥拿鐵:
  html_attributions: []
  results:
  - business_status: OPERATIONAL
    formatted_address: 300台灣新竹市東區忠孝路27巷9號
    geometry:
      location:
        lat: 24.8017449
        lng: 120.9897102
      viewport:
        northeast:
          lat: 24.80311047989272
          lng: 120.9910662798927
        southwest:
          lat: 24.80041082010728
          lng: 120.9883666201073
    icon: https://maps.gstatic.com/mapfiles/place_api/icons/v1/png_71/cafe-71.png
    icon_background_color: "#FF9E67"
    icon_mask_base_uri: https://maps.gstatic.com/mapfiles/place_api/icons/v2/cafe_pinlet
    name: Hollatte馥拿鐵 自烘咖啡 馬偕店
    opening_hours:
      open_now: false
    photos:
    - height: 4032
      html_attributions:
      - <a href="https://maps.google.com/maps/contrib/110106386704599080674">Mou Chu</a>
      photo_reference: AcYSjRiIEbmF9Xu8hqKxK01_DS_GqLVw3sJr-VNhlORNYkvdrvEm6mB6HIyR8uq3lZG1KeFwT4lMwtCxa8wV6cjJLPGb5seN8ahG1qdLs6wGH-qUFNKo7U1ROOQjiRDl4ngXekaQ75nz5krU9tQ0viKA9gU8vbHQ3rj0nd2iZheppSTdUUKZ
      width: 2268
    place_id: ChIJ09yvu3U2aDQRXpn-mU67acY
    plus_code:
      compound_code: RX2Q+MV 東區 新竹市
      global_code: 7QP2RX2Q+MV
    price_level: 1
    rating: 4.7
    reference: ChIJ09yvu3U2aDQRXpn-mU67acY
    types:
    - cafe
    - point_of_interest
    - food
    - establishment
    user_ratings_total: 220
  - business_status: OPERATIONAL
    formatted_address: 300台灣新竹市東區慈雲路51號1樓
    geometry:
      location:
        lat: 24.7898865
        lng: 121.0112497
      viewport:
        northeast:
          lat: 24.79124997989272
          lng: 121.0124854298927
        southwest:
          lat: 24.78855032010727
          lng: 121.0097857701073
    icon: https://maps.gstatic.com/mapfiles/place_api/icons/v1/png_71/cafe-71.png
    icon_background_color: "#FF9E67"
    icon_mask_base_uri: https://maps.gstatic.com/mapfiles/place_api/icons/v2/cafe_pinlet
    name: Hollatte馥拿鐵 自烘咖啡 關埔店
    opening_hours:
      open_now: false
    photos:
    - height: 4160
      html_attributions:
      - <a href="https://maps.google.com/maps/contrib/111278509554501549157">A Google
        User</a>
      photo_reference: AcYSjRjMMhp9nCTvY17vOnUVhxffNO9QlhsV9wtZFPo1HcLLw2HOM_xfh_gre-EEw6xTwWAJd9nmRhhJUCylYxeyvqFRaVBI91qQbcgT5YlbVCmlNuMm_FDuqzOtUrI53oNiI1qs5_Xtx3deVo1m_dcWOxSi7IfeaL4EgSUFFNNeyHBGDikc
      width: 3120
    place_id: ChIJFbU3ipU3aDQRNxaE23kD9pc
    plus_code:
      compound_code: Q2Q6+XF 東區 新竹市
      global_code: 7QP3Q2Q6+XF
    rating: 4.9
    reference: ChIJFbU3ipU3aDQRNxaE23kD9pc
    types:
    - cafe
    - store
    - point_of_interest
    - food
    - establishment
    user_ratings_total: 72
  - business_status: OPERATIONAL
    formatted_address: 300台灣新竹市東區金山七街70號
    geometry:
      location:
        lat: 24.777328
        lng: 121.019885
      viewport:
        northeast:
          lat: 24.77867862989272
          lng: 121.0212995298927
        southwest:
          lat: 24.77597897010727
          lng: 121.0185998701073
    icon: https://maps.gstatic.com/mapfiles/place_api/icons/v1/png_71/cafe-71.png
    icon_background_color: "#FF9E67"
    icon_mask_base_uri: https://maps.gstatic.com/mapfiles/place_api/icons/v2/cafe_pinlet
    name: Hollatte馥拿鐵 自烘咖啡
    opening_hours:
      open_now: false
    photos:
    - height: 3024
      html_attributions:
      - <a href="https://maps.google.com/maps/contrib/100955869462780097996">A Google
        User</a>
